[
  {
    "state": "KERALA",
    "state_code": "32",
    "district": "ALAPPUZHA",
    "district_code": "598",
    "block": "AMBALAPPUZHA",
    "block_code": "6260",
    "block_address": "",
    "route": [
      {
        "place": "AMBALAPUZHA EXCHANGE",
        "latitude": 9.38293,
        "longitude": 76.35572,
        "type": "BHQ"
      },
      {
        "place": "AMBALAPPUZHA ( NORTH )",
        "latitude": 9.406471,
        "longitude": 76.351239,
        "type": "GP"
      },
      {
        "place": "AMBALAPPUZHA(SOUTH)",
        "latitude": 9.383151,
        "longitude": 76.355935,
        "type": "GP"
      },
      {
        "place": "PUNNAPRA (NORTH)",
        "latitude": 9.451026,
        "longitude": 76.342258,
        "type": "GP"
      },
      {
        "place": "PUNNAPRA(SOUTH)",
        "latitude": 9.43257,
        "longitude": 76.345147,
        "type": "GP"
      },
      {
        "place": "PURAKKAD",
        "latitude": 9.353287,
        "longitude": 76.365585,
        "type": "GP"
      }
    ]
  },
  {
    "state": "KERALA",
    "state_code": "32",
    "district": "ALAPPUZHA",
    "district_code": "598",
    "block": "ARYAD",
    "block_code": "6261",
    "block_address": "",
    "route": [
      {
        "place": "SL PURAM EXCHANGE",
        "latitude": 9.610064,
        "longitude": 76.328637,
        "type": "BHQ"
      },
      {
        "place": "ARYAD",
        "latitude": 9.5404,
        "longitude": 76.34232,
        "type": "GP"
      },
      {
        "place": "MANNANCHERY",
        "latitude": 9.57215,
        "longitude": 76.34718,
        "type": "GP"
      },
      {
        "place": "MARARIKKULAM SOUTH",
        "latitude": 9.56357,
        "longitude": 76.30936,
        "type": "GP"
      },
      {
        "place": "MUHAMMA",
        "latitude": 9.613,
        "longitude": 76.36305,
        "type": "GP"
      }
    ]
  },
  {
    "state": "KERALA",
    "state_code": "32",
    "district": "ALAPPUZHA",
    "district_code": "598",
    "block": "BHARANICAVU",
    "block_code": "6262",
    "block_address": "",
    "route": [
      {
        "place": "NOORANAD EXCHANGE",
        "latitude": 9.175265,
        "longitude": 76.619686,
        "type": "BHQ"
      },
      {
        "place": "BHARANIKKAVU",
        "latitude": 9.17746,
        "longitude": 76.55343,
        "type": "GP"
      },
      {
        "place": "CHUNAKKARA",
        "latitude": 9.19798,
        "longitude": 76.59811,
        "type": "GP"
      },
      {
        "place": "MAVELIKKARA THAMARAKKULAM",
        "latitude": 9.14525,
        "longitude": 76.61472,
        "type": "GP"
      },
      {
        "place": "NOORANAD",
        "latitude": 9.19374,
        "longitude": 76.63618,
        "type": "GP"
      },
      {
        "place": "PALAMEL",
        "latitude": 9.17533,
        "longitude": 76.63963,
        "type": "GP"
      },
      {
        "place": "VALLIKUNNAM",
        "latitude": 9.1304,
        "longitude": 76.55624,
        "type": "GP"
      }
    ]
  },
  {
    "state": "KERALA",
    "state_code": "32",
    "district": "ALAPPUZHA",
    "district_code": "598",
    "block": "CHAMPAKULAM",
    "block_code": "6263",
    "block_address": "",
    "route": [
      {
        "place": "PULINCUNNU EXCHANGE",
        "latitude": 9.4356,
        "longitude": 76.44739,
        "type": "BHQ"
      },
      {
        "place": "CHAMPAKKULAM",
        "latitude": 9.43548,
        "longitude": 76.42207,
        "type": "GP"
      },
      {
        "place": "EDATHUA",
        "latitude": 9.366085,
        "longitude": 76.476121,
        "type": "GP"
      },
      {
        "place": "KAINAKARY",
        "latitude": 9.478603,
        "longitude": 76.387054,
        "type": "GP"
      },
      {
        "place": "NEDUMUDI",
        "latitude": 9.402239,
        "longitude": 76.411047,
        "type": "GP"
      },
      {
        "place": "THAKAZHI",
        "latitude": 9.371618,
        "longitude": 76.412026,
        "type": "GP"
      },
      {
        "place": "THALAVADI",
        "latitude": 9.36839,
        "longitude": 76.5084,
        "type": "GP"
      }
    ]
  },
  {
    "state": "KERALA",
    "state_code": "32",
    "district": "ALAPPUZHA",
    "district_code": "598",
    "block": "CHENGANNUR",
    "block_code": "6264",
    "block_address": "",
    "route": [
      {
        "place": "CHENGANNOOR OLT",
        "latitude": 9.321037,
        "longitude": 76.617608,
        "type": "BHQ"
      },
      {
        "place": "ALA",
        "latitude": 9.28613,
        "longitude": 76.60876,
        "type": "GP"
      },
      {
        "place": "BUDHANNOOR",
        "latitude": 9.3077298,
        "longitude": 76.5629283,
        "type": "GP"
      },
      {
        "place": "CHERIYANAD",
        "latitude": 9.27546,
        "longitude": 76.5986,
        "type": "GP"
      },
      {
        "place": "MULAKKUZHA",
        "latitude": 9.2913874,
        "longitude": 76.6478785,
        "type": "GP"
      },
      {
        "place": "PANDANAD",
        "latitude": 9.3259542,
        "longitude": 76.5801435,
        "type": "GP"
      },
      {
        "place": "PULIYOOR",
        "latitude": 9.30402,
        "longitude": 76.58758,
        "type": "GP"
      },
      {
        "place": "THIRUVANVANDUR",
        "latitude": 9.3430657,
        "longitude": 76.578428,
        "type": "GP"
      },
      {
        "place": "VENMONY",
        "latitude": 9.24602,
        "longitude": 76.61457,
        "type": "GP"
      }
    ]
  },
  {
    "state": "KERALA",
    "state_code": "32",
    "district": "ALAPPUZHA",
    "district_code": "598",
    "block": "HARIPPAD",
    "block_code": "6265",
    "block_address": "",
    "route": [
      {
        "place": "HARIPPAD EXCHANGE",
        "latitude": 9.280833,
        "longitude": 76.4586,
        "type": "BHQ"
      },
      {
        "place": "CHERUTHANA",
        "latitude": 9.30223,
        "longitude": 76.44472,
        "type": "GP"
      },
      {
        "place": "HARIPPAD",
        "latitude": 9.2819997,
        "longitude": 76.4542502,
        "type": "GP"
      },
      {
        "place": "KARTHIKAPPALLY",
        "latitude": 9.26131,
        "longitude": 76.4497,
        "type": "GP"
      },
      {
        "place": "KARUVATTA",
        "latitude": 9.31534,
        "longitude": 76.42793,
        "type": "GP"
      },
      {
        "place": "KUMARAPURAM",
        "latitude": 9.28353,
        "longitude": 76.43999,
        "type": "GP"
      },
      {
        "place": "PALLIPPAD",
        "latitude": 9.27959,
        "longitude": 76.47808,
        "type": "GP"
      },
      {
        "place": "THRIKKUNNAPUZHA",
        "latitude": 9.25916,
        "longitude": 76.41013,
        "type": "GP"
      },
      {
        "place": "VEEYAPURAM",
        "latitude": 9.31989,
        "longitude": 76.4608,
        "type": "GP"
      }
    ]
  },
  {
    "state": "KERALA",
    "state_code": "32",
    "district": "ALAPPUZHA",
    "district_code": "598",
    "block": "KANJIKKUZHY",
    "block_code": "6266",
    "block_address": "",
    "route": [
      {
        "place": "CHERTHALA OLT",
        "latitude": 9.679814,
        "longitude": 76.340915,
        "type": "BHQ"
      },
      {
        "place": "CHERTHALA SOUTH",
        "latitude": 9.65751,
        "longitude": 76.31799,
        "type": "GP"
      },
      {
        "place": "KADAKKARAPPALLY",
        "latitude": 9.70349,
        "longitude": 76.31392,
        "type": "GP"
      },
      {
        "place": "KANJIKUZHI",
        "latitude": 9.62211,
        "longitude": 76.34264,
        "type": "GP"
      },
      {
        "place": "MARARIKKULAM NORTH",
        "latitude": 9.6116317,
        "longitude": 76.3295846,
        "type": "GP"
      },
      {
        "place": "THANNEERMUKKAM",
        "latitude": 9.67609,
        "longitude": 76.39245,
        "type": "GP"
      }
    ]
  },
  {
    "state": "KERALA",
    "state_code": "32",
    "district": "ALAPPUZHA",
    "district_code": "598",
    "block": "MAVELIKKARA",
    "block_code": "6267",
    "block_address": "",
    "route": [
      {
        "place": "MAVELIKKARA OLT",
        "latitude": 9.247509,
        "longitude": 76.546497,
        "type": "BHQ"
      },
      {
        "place": "CHENNITHALA THRIPERUMTHARA",
        "latitude": 9.28054,
        "longitude": 76.52631,
        "type": "GP"
      },
      {
        "place": "CHETTIKULANGARA",
        "latitude": 9.22887,
        "longitude": 76.51725,
        "type": "GP"
      },
      {
        "place": "MANNAR",
        "latitude": 9.31103,
        "longitude": 76.53902,
        "type": "GP"
      },
      {
        "place": "MAVELIKKARA THEKKEKARA",
        "latitude": 9.21807,
        "longitude": 76.55119,
        "type": "GP"
      },
      {
        "place": "THAZHAKKARA",
        "latitude": 9.23631,
        "longitude": 76.58842,
        "type": "GP"
      }
    ]
  },
  {
    "state": "KERALA",
    "state_code": "32",
    "district": "ALAPPUZHA",
    "district_code": "598",
    "block": "MUTHUKULAM",
    "block_code": "6268",
    "block_address": "",
    "route": [
      {
        "place": "KAYAMKULAM OLT",
        "latitude": 9.17226,
        "longitude": 76.505581,
        "type": "BHQ"
      },
      {
        "place": "ARATTUPUZHA",
        "latitude": 9.20172,
        "longitude": 76.43619,
        "type": "GP"
      },
      {
        "place": "CHEPPAD",
        "latitude": 9.24117,
        "longitude": 76.46989,
        "type": "GP"
      },
      {
        "place": "CHINGOLI",
        "latitude": 9.24849,
        "longitude": 76.45189,
        "type": "GP"
      },
      {
        "place": "DEVIKULANGARA",
        "latitude": 9.14815,
        "longitude": 76.49677,
        "type": "GP"
      },
      {
        "place": "KANDALLOOR",
        "latitude": 9.17718,
        "longitude": 76.48521,
        "type": "GP"
      },
      {
        "place": "KRISHNAPURAM",
        "latitude": 9.1515,
        "longitude": 76.52438,
        "type": "GP"
      },
      {
        "place": "MUTHUKULAM",
        "latitude": 9.21524,
        "longitude": 76.45924,
        "type": "GP"
      },
      {
        "place": "PATHIYOOR",
        "latitude": 9.20997,
        "longitude": 76.49563,
        "type": "GP"
      }
    ]
  },
  {
    "state": "KERALA",
    "state_code": "32",
    "district": "ALAPPUZHA",
    "district_code": "598",
    "block": "PATTANAKKAD",
    "block_code": "6269",
    "block_address": "",
    "route": [
      {
        "place": "CHERTHALA OLT",
        "latitude": 9.679814,
        "longitude": 76.340915,
        "type": "BHQ"
      },
      {
        "place": "AROOR",
        "latitude": 9.86634,
        "longitude": 76.30518,
        "type": "GP"
      },
      {
        "place": "EZHUPUNNA",
        "latitude": 9.82339,
        "longitude": 76.30518,
        "type": "GP"
      },
      {
        "place": "KODAMTHURUTHU",
        "latitude": 9.79656,
        "longitude": 76.31593,
        "type": "GP"
      },
      {
        "place": "KUTHIATHODU",
        "latitude": 9.7834997,
        "longitude": 76.3173552,
        "type": "GP"
      },
      {
        "place": "PATTANAKKAD",
        "latitude": 9.7324,
        "longitude": 76.31862,
        "type": "GP"
      },
      {
        "place": "THURAVOOR",
        "latitude": 9.75722,
        "longitude": 76.31825,
        "type": "GP"
      },
      {
        "place": "VAYALAR",
        "latitude": 9.7221139,
        "longitude": 76.3401908,
        "type": "GP"
      }
    ]
  },
  {
    "state": "KERALA",
    "state_code": "32",
    "district": "ALAPPUZHA",
    "district_code": "598",
    "block": "THYCATTUSSERY",
    "block_code": "6270",
    "block_address": "",
    "route": [
      {
        "place": "PANAVALLY XGE",
        "latitude": 9.81674,
        "longitude": 76.35036,
        "type": "BHQ"
      },
      {
        "place": "AROOKUTTY",
        "latitude": 9.86473,
        "longitude": 76.32407,
        "type": "GP"
      },
      {
        "place": "CHENNAMPALIPPURAM",
        "latitude": 9.7411,
        "longitude": 76.36283,
        "type": "GP"
      },
      {
        "place": "PANAVALLY",
        "latitude": 9.81623,
        "longitude": 76.35132,
        "type": "GP"
      },
      {
        "place": "PERUMBALAM",
        "latitude": 9.84247,
        "longitude": 76.35922,
        "type": "GP"
      },
      {
        "place": "THAICATTUSSERY",
        "latitude": 9.77344,
        "longitude": 76.34242,
        "type": "GP"
      }
    ]
  },
  {
    "state": "KERALA",
    "state_code": "32",
    "district": "ALAPPUZHA",
    "district_code": "598",
    "block": "VELIYANAD",
    "block_code": "6271",
    "block_address": "",
    "route": [
      {
        "place": "PULICUNNU EXCH",
        "latitude": 9.435605,
        "longitude": 76.44739,
        "type": "BHQ"
      },
      {
        "place": "KAVALAM",
        "latitude": 9.472557,
        "longitude": 76.460906,
        "type": "GP"
      },
      {
        "place": "MUTTAR",
        "latitude": 9.400919,
        "longitude": 76.499543,
        "type": "GP"
      },
      {
        "place": "NEELAMPEROOR",
        "latitude": 9.490968,
        "longitude": 76.497336,
        "type": "GP"
      },
      {
        "place": "PULINKUNNU",
        "latitude": 9.4487041,
        "longitude": 76.4472179,
        "type": "GP"
      },
      {
        "place": "RAMANKARI",
        "latitude": 9.423634,
        "longitude": 76.466208,
        "type": "GP"
      },
      {
        "place": "VELIYANAD",
        "latitude": 9.424894,
        "longitude": 76.488782,
        "type": "GP"
      }
    ]
  },
  {
    "state": "KERALA",
    "state_code": "32",
    "district": "ERNAKULAM",
    "district_code": "595",
    "block": "ALANGAD",
    "block_code": "6272",
    "block_address": "",
    "route": [
      {
        "place": "ALUVA TELE EXGE",
        "latitude": 10.104386,
        "longitude": 76.355876,
        "type": "BHQ"
      },
      {
        "place": "ALANGAD",
        "latitude": 10.11811,
        "longitude": 76.28522,
        "type": "GP"
      },
      {
        "place": "KADUNGALLUR",
        "latitude": 10.095904,
        "longitude": 76.317963,
        "type": "GP"
      },
      {
        "place": "KARUMALLOOR",
        "latitude": 10.12985,
        "longitude": 76.29313,
        "type": "GP"
      },
      {
        "place": "VARAPUZHA",
        "latitude": 10.07512,
        "longitude": 76.27093,
        "type": "GP"
      }
    ]
  },
  {
    "state": "KERALA",
    "state_code": "32",
    "district": "ERNAKULAM",
    "district_code": "595",
    "block": "ANGAMALI",
    "block_code": "6273",
    "block_address": "",
    "route": [
      {
        "place": "ANKAMALY TE",
        "latitude": 10.187173,
        "longitude": 76.383307,
        "type": "BHQ"
      },
      {
        "place": "AYYAMPUZHA",
        "latitude": 10.2525641,
        "longitude": 76.4771122,
        "type": "GP"
      },
      {
        "place": "KALADY",
        "latitude": 10.1672139,
        "longitude": 76.4360492,
        "type": "GP"
      },
      {
        "place": "KANJOOR",
        "latitude": 10.1455654,
        "longitude": 76.4260489,
        "type": "GP"
      },
      {
        "place": "KARUKUTTY",
        "latitude": 10.2250451,
        "longitude": 76.375956,
        "type": "GP"
      },
      {
        "place": "MALAYATTOOR NEELESWARAM",
        "latitude": 10.1855633,
        "longitude": 76.4755515,
        "type": "GP"
      },
      {
        "place": "MANJAPRA",
        "latitude": 10.2047781,
        "longitude": 76.4521093,
        "type": "GP"
      },
      {
        "place": "MOOKKANNUR",
        "latitude": 10.2190927,
        "longitude": 76.4127418,
        "type": "GP"
      },
      {
        "place": "THURAVOOR",
        "latitude": 10.205377,
        "longitude": 76.4221403,
        "type": "GP"
      }
    ]
  },
  {
    "state": "KERALA",
    "state_code": "32",
    "district": "ERNAKULAM",
    "district_code": "595",
    "block": "EDAPPALLY",
    "block_code": "6274",
    "block_address": "",
    "route": [
      {
        "place": "BOAT JETTY TE",
        "latitude": 9.973126,
        "longitude": 76.279795,
        "type": "BHQ"
      },
      {
        "place": "CHERANALLUR",
        "latitude": 10.040346,
        "longitude": 76.279766,
        "type": "GP"
      },
      {
        "place": "ELAMKUNNAPUZHA",
        "latitude": 10.0183542,
        "longitude": 76.2255971,
        "type": "GP"
      },
      {
        "place": "KADAMAKKUDY",
        "latitude": 10.052661,
        "longitude": 76.261128,
        "type": "GP"
      },
      {
        "place": "MULAVUKAD",
        "latitude": 10.024485,
        "longitude": 76.257068,
        "type": "GP"
      }
    ]
  },
  {
    "state": "KERALA",
    "state_code": "32",
    "district": "ERNAKULAM",
    "district_code": "595",
    "block": "KOOVAPPADY",
    "block_code": "6275",
    "block_address": "",
    "route": [
      {
        "place": "PERUMBAVOOR TE",
        "latitude": 10.115314,
        "longitude": 76.476915,
        "type": "BHQ"
      },
      {
        "place": "ASAMANNOOR",
        "latitude": 10.0946,
        "longitude": 76.55649,
        "type": "GP"
      },
      {
        "place": "KOOVAPPADY",
        "latitude": 10.153042,
        "longitude": 76.482182,
        "type": "GP"
      },
      {
        "place": "MUDAKUZHA",
        "latitude": 10.131075,
        "longitude": 76.529039,
        "type": "GP"
      },
      {
        "place": "OKKAL",
        "latitude": 10.1538,
        "longitude": 76.4533,
        "type": "GP"
      },
      {
        "place": "RAYAMANGALAM",
        "latitude": 10.08506,
        "longitude": 76.519591,
        "type": "GP"
      },
      {
        "place": "VENGOOR",
        "latitude": 10.145903,
        "longitude": 76.540549,
        "type": "GP"
      }
    ]
  },
  {
    "state": "KERALA",
    "state_code": "32",
    "district": "ERNAKULAM",
    "district_code": "595",
    "block": "KOTHAMANGALAM",
    "block_code": "6276",
    "block_address": "",
    "route": [
      {
        "place": "CHELAD TE",
        "latitude": 10.099399,
        "longitude": 76.646828,
        "type": "BHQ"
      },
      {
        "place": "KAVALANGAD",
        "latitude": 10.0583333,
        "longitude": 76.6822222,
        "type": "GP"
      },
      {
        "place": "KEERAMPARA",
        "latitude": 10.1069444,
        "longitude": 76.6705556,
        "type": "GP"
      },
      {
        "place": "KOTTAPPADY",
        "latitude": 10.1175,
        "longitude": 76.5897222,
        "type": "GP"
      },
      {
        "place": "KUTTAMPUZHA",
        "latitude": 10.1513889,
        "longitude": 76.7355556,
        "type": "GP"
      },
      {
        "place": "NELLIKKUZHI",
        "latitude": 10.0775,
        "longitude": 76.5902778,
        "type": "GP"
      },
      {
        "place": "PAINGOTTUR",
        "latitude": 10.005,
        "longitude": 76.7102778,
        "type": "GP"
      },
      {
        "place": "PALLARIMANGALAM",
        "latitude": 10.0302778,
        "longitude": 76.6816667,
        "type": "GP"
      },
      {
        "place": "PINDIMANA",
        "latitude": 10.105,
        "longitude": 76.6236111,
        "type": "GP"
      },
      {
        "place": "POTHANIKKAD",
        "latitude": 10.0102778,
        "longitude": 76.6808333,
        "type": "GP"
      },
      {
        "place": "VARAPPETTY",
        "latitude": 10.0280556,
        "longitude": 76.6261111,
        "type": "GP"
      }
    ]
  },
  {
    "state": "KERALA",
    "state_code": "32",
    "district": "ERNAKULAM",
    "district_code": "595",
    "block": "MULANTHURUTHY",
    "block_code": "6277",
    "block_address": "",
    "route": [
      {
        "place": "MULANTHURUTHY XGE",
        "latitude": 9.898233,
        "longitude": 76.3836,
        "type": "BHQ"
      },
      {
        "place": "AMBALLUR",
        "latitude": 9.858938,
        "longitude": 76.402165,
        "type": "GP"
      },
      {
        "place": "CHOTTANIKKARA",
        "latitude": 9.928637,
        "longitude": 76.390633,
        "type": "GP"
      },
      {
        "place": "EDAKKATTUVAYAL",
        "latitude": 9.86647,
        "longitude": 76.436711,
        "type": "GP"
      },
      {
        "place": "MANEED",
        "latitude": 9.905408,
        "longitude": 76.457943,
        "type": "GP"
      },
      {
        "place": "MULUMTHURUTHY",
        "latitude": 9.901083,
        "longitude": 76.390291,
        "type": "GP"
      },
      {
        "place": "UDAYAMPERUR",
        "latitude": 9.897565,
        "longitude": 76.369246,
        "type": "GP"
      }
    ]
  },
  {
    "state": "KERALA",
    "state_code": "32",
    "district": "ERNAKULAM",
    "district_code": "595",
    "block": "MUVATTUPUZHA",
    "block_code": "6278",
    "block_address": "",
    "route": [
      {
        "place": "MUVATTUPUZHA TE",
        "latitude": 9.984065,
        "longitude": 76.577315,
        "type": "BHQ"
      },
      {
        "place": "ARAKUZHA",
        "latitude": 9.9324618,
        "longitude": 76.5992137,
        "type": "GP"
      },
      {
        "place": "AVOLY",
        "latitude": 9.9578112,
        "longitude": 76.6247669,
        "type": "GP"
      },
      {
        "place": "AYAVANA",
        "latitude": 9.9853237,
        "longitude": 76.6379864,
        "type": "GP"
      },
      {
        "place": "KALLOORKKAD",
        "latitude": 9.9701412,
        "longitude": 76.6719123,
        "type": "GP"
      },
      {
        "place": "MANJALLOOR",
        "latitude": 9.9442567,
        "longitude": 76.6410888,
        "type": "GP"
      },
      {
        "place": "MARADY",
        "latitude": 9.9558189,
        "longitude": 76.5601902,
        "type": "GP"
      },
      {
        "place": "PAIPRA",
        "latitude": 10.021,
        "longitude": 76.56147,
        "type": "GP"
      },
      {
        "place": "VALAKOM",
        "latitude": 9.9799463,
        "longitude": 76.5407371,
        "type": "GP"
      }
    ]
  },
  {
    "state": "KERALA",
    "state_code": "32",
    "district": "ERNAKULAM",
    "district_code": "595",
    "block": "PALLURUTHY",
    "block_code": "6279",
    "block_address": "",
    "route": [
      {
        "place": "EDACOCHI T.E",
        "latitude": 9.908443,
        "longitude": 76.293984,
        "type": "BHQ"
      },
      {
        "place": "CHELLANAM",
        "latitude": 9.855505,
        "longitude": 76.26756,
        "type": "GP"
      },
      {
        "place": "KUMBALAM",
        "latitude": 9.904291,
        "longitude": 76.321263,
        "type": "GP"
      },
      {
        "place": "KUMBALANGY",
        "latitude": 9.887923,
        "longitude": 76.2855,
        "type": "GP"
      }
    ]
  },
  {
    "state": "KERALA",
    "state_code": "32",
    "district": "ERNAKULAM",
    "district_code": "595",
    "block": "PAMPAKUDA",
    "block_code": "6280",
    "block_address": "",
    "route": [
      {
        "place": "PAMPAKUDA TE",
        "latitude": 9.920311,
        "longitude": 76.520611,
        "type": "BHQ"
      },
      {
        "place": "ELANJI",
        "latitude": 9.8312,
        "longitude": 76.54058,
        "type": "GP"
      },
      {
        "place": "Koothattukulam",
        "latitude": 9.8619,
        "longitude": 76.59582,
        "type": "GP"
      },
      {
        "place": "PALAKUZHA",
        "latitude": 9.8814,
        "longitude": 76.60667,
        "type": "GP"
      },
      {
        "place": "PAMPAKUDA",
        "latitude": 9.9189,
        "longitude": 76.52097,
        "type": "GP"
      },
      {
        "place": "Piravom",
        "latitude": 9.8776,
        "longitude": 76.48514,
        "type": "GP"
      },
      {
        "place": "RAMAMANGALAM",
        "latitude": 9.9428,
        "longitude": 76.48162,
        "type": "GP"
      },
      {
        "place": "THIRUMARADY",
        "latitude": 9.8878,
        "longitude": 76.55407,
        "type": "GP"
      }
    ]
  },
  {
    "state": "KERALA",
    "state_code": "32",
    "district": "ERNAKULAM",
    "district_code": "595",
    "block": "PARAKKADAV",
    "block_code": "6281",
    "block_address": "",
    "route": [
      {
        "place": "CHENGAMANAD TE",
        "latitude": 10.153958,
        "longitude": 76.341787,
        "type": "BHQ"
      },
      {
        "place": "CHENGAMANAD",
        "latitude": 10.088804,
        "longitude": 76.343175,
        "type": "GP"
      },
      {
        "place": "KUNNUKARA",
        "latitude": 10.155678,
        "longitude": 76.295563,
        "type": "GP"
      },
      {
        "place": "NEDUMBASSERY",
        "latitude": 10.1622564,
        "longitude": 76.3691942,
        "type": "GP"
      },
      {
        "place": "PARAKKADAVU",
        "latitude": 10.188334,
        "longitude": 76.328223,
        "type": "GP"
      },
      {
        "place": "PUTHENVELIKKARA",
        "latitude": 10.18595,
        "longitude": 76.246028,
        "type": "GP"
      },
      {
        "place": "SREEMOOLANAGARAM",
        "latitude": 10.135663,
        "longitude": 76.406597,
        "type": "GP"
      }
    ]
  },
  {
    "state": "KERALA",
    "state_code": "32",
    "district": "ERNAKULAM",
    "district_code": "595",
    "block": "PARAVUR",
    "block_code": "6282",
    "block_address": "",
    "route": [
      {
        "place": "PARAVUR TE",
        "latitude": 10.149452,
        "longitude": 76.226443,
        "type": "BHQ"
      },
      {
        "place": "CHENDAMANGALAM",
        "latitude": 10.1748779,
        "longitude": 76.2305964,
        "type": "GP"
      },
      {
        "place": "CHITTATTUKARA",
        "latitude": 10.160764,
        "longitude": 76.21349,
        "type": "GP"
      },
      {
        "place": "EZHIKKARA",
        "latitude": 10.1150807,
        "longitude": 76.2271903,
        "type": "GP"
      },
      {
        "place": "KOTTUVALLY",
        "latitude": 10.1214918,
        "longitude": 76.254747,
        "type": "GP"
      },
      {
        "place": "VADAKKEKARA",
        "latitude": 10.167518,
        "longitude": 76.212481,
        "type": "GP"
      }
    ]
  },
  {
    "state": "KERALA",
    "state_code": "32",
    "district": "ERNAKULAM",
    "district_code": "595",
    "block": "VADAVUCODE",
    "block_code": "6283",
    "block_address": "",
    "route": [
      {
        "place": "KOLENCHERY T.E",
        "latitude": 9.978889,
        "longitude": 76.475,
        "type": "BHQ"
      },
      {
        "place": "AIKKARANAD",
        "latitude": 9.982968,
        "longitude": 76.476388,
        "type": "GP"
      },
      {
        "place": "KUNNATHUNAD",
        "latitude": 10.024892,
        "longitude": 76.405518,
        "type": "GP"
      },
      {
        "place": "MAZHUVANNOOR",
        "latitude": 10.034991,
        "longitude": 76.502409,
        "type": "GP"
      },
      {
        "place": "POOTHRIKKA",
        "latitude": 9.965131,
        "longitude": 76.444588,
        "type": "GP"
      },
      {
        "place": "THIRUVANIYOOR",
        "latitude": 9.933995,
        "longitude": 76.425093,
        "type": "GP"
      },
      {
        "place": "VADAVUCODE PUTHEN CRUZ",
        "latitude": 9.976374,
        "longitude": 76.418753,
        "type": "GP"
      }
    ]
  },
  {
    "state": "KERALA",
    "state_code": "32",
    "district": "ERNAKULAM",
    "district_code": "595",
    "block": "VAZHAKKULAM",
    "block_code": "6284",
    "block_address": "",
    "route": [
      {
        "place": "ALUVA TELE EXGE",
        "latitude": 10.104386,
        "longitude": 76.355876,
        "type": "BHQ"
      },
      {
        "place": "CHOORNIKKARA",
        "latitude": 10.0888041,
        "longitude": 76.3443176,
        "type": "GP"
      },
      {
        "place": "EDATHALA",
        "latitude": 10.072847,
        "longitude": 76.380993,
        "type": "GP"
      },
      {
        "place": "KEEZHMAD",
        "latitude": 10.103022,
        "longitude": 76.387725,
        "type": "GP"
      },
      {
        "place": "KIZHAKKAMBALAM",
        "latitude": 10.035072,
        "longitude": 76.40826,
        "type": "GP"
      },
      {
        "place": "VAZHAKKULAM",
        "latitude": 10.115181,
        "longitude": 76.430141,
        "type": "GP"
      },
      {
        "place": "VENGOLA",
        "latitude": 10.079914,
        "longitude": 76.466308,
        "type": "GP"
      }
    ]
  },
  {
    "state": "KERALA",
    "state_code": "32",
    "district": "ERNAKULAM",
    "district_code": "595",
    "block": "VYPEEN",
    "block_code": "6285",
    "block_address": "",
    "route": [
      {
        "place": "CHERAI TE",
        "latitude": 10.138645,
        "longitude": 76.195539,
        "type": "BHQ"
      },
      {
        "place": "EDAVANAKKAD",
        "latitude": 10.0945371,
        "longitude": 76.2067495,
        "type": "GP"
      },
      {
        "place": "KUZHUPPILLY",
        "latitude": 10.112077,
        "longitude": 76.2019822,
        "type": "GP"
      },
      {
        "place": "NAYARAMBALAM",
        "latitude": 10.0607266,
        "longitude": 76.2138949,
        "type": "GP"
      },
      {
        "place": "NJARAKKAL",
        "latitude": 10.0439515,
        "longitude": 76.2178874,
        "type": "GP"
      },
      {
        "place": "PALLIPPURAM",
        "latitude": 10.139002,
        "longitude": 76.195004,
        "type": "GP"
      }
    ]
  },
  {
    "state": "KERALA",
    "state_code": "32",
    "district": "IDUKKI",
    "district_code": "596",
    "block": "ADIMALY",
    "block_code": "6286",
    "block_address": "",
    "route": [
      {
        "place": "ADIMALY TE",
        "latitude": 10.010471,
        "longitude": 76.954861,
        "type": "BHQ"
      },
      {
        "place": "ADIMALY",
        "latitude": 10.009361,
        "longitude": 76.958071,
        "type": "GP"
      },
      {
        "place": "BISONVALLEY",
        "latitude": 10.009651,
        "longitude": 77.083561,
        "type": "GP"
      },
      {
        "place": "KONNATHADY",
        "latitude": 9.957531,
        "longitude": 77.029081,
        "type": "GP"
      },
      {
        "place": "PALLIVASAL",
        "latitude": 10.009182,
        "longitude": 77.036531,
        "type": "GP"
      },
      {
        "place": "VELLATHOOVAL",
        "latitude": 9.977181,
        "longitude": 77.027482,
        "type": "GP"
      }
    ]
  },
  {
    "state": "KERALA",
    "state_code": "32",
    "district": "IDUKKI",
    "district_code": "596",
    "block": "AZHUTHA",
    "block_code": "6287",
    "block_address": "",
    "route": [
      {
        "place": "PEERUMEDU TE",
        "latitude": 9.571591,
        "longitude": 76.994069,
        "type": "BHQ"
      },
      {
        "place": "ELAPPARA",
        "latitude": 9.630961,
        "longitude": 76.978789,
        "type": "GP"
      },
      {
        "place": "KOKKAYAR",
        "latitude": 9.575739,
        "longitude": 76.893809,
        "type": "GP"
      },
      {
        "place": "KUMALY",
        "latitude": 9.605409,
        "longitude": 77.165261,
        "type": "GP"
      },
      {
        "place": "PEERUMEDU",
        "latitude": 9.573151,
        "longitude": 76.992001,
        "type": "GP"
      },
      {
        "place": "PERUVANTHANAM",
        "latitude": 9.553521,
        "longitude": 76.925489,
        "type": "GP"
      },
      {
        "place": "VANDIPERIYAR",
        "latitude": 9.571401,
        "longitude": 77.089531,
        "type": "GP"
      }
    ]
  },
  {
    "state": "KERALA",
    "state_code": "32",
    "district": "IDUKKI",
    "district_code": "596",
    "block": "DEVIKULAM",
    "block_code": "6288",
    "block_address": "",
    "route": [
      {
        "place": "MARAYOOR TE",
        "latitude": 10.278609,
        "longitude": 77.169491,
        "type": "BHQ"
      },
      {
        "place": "CHINNAKANAL",
        "latitude": 10.040641,
        "longitude": 77.172681,
        "type": "GP"
      },
      {
        "place": "DEVIKULAM",
        "latitude": 10.105061,
        "longitude": 77.127011,
        "type": "GP"
      },
      {
        "place": "Edamalakkudy",
        "latitude": 10.19915,
        "longitude": 76.959579,
        "type": "GP"
      },
      {
        "place": "KANTHALLOOR",
        "latitude": 10.215291,
        "longitude": 77.194909,
        "type": "GP"
      },
      {
        "place": "MANKULAM",
        "latitude": 10.126001,
        "longitude": 76.925001,
        "type": "GP"
      },
      {
        "place": "MARAYOOR",
        "latitude": 10.276531,
        "longitude": 77.162621,
        "type": "GP"
      },
      {
        "place": "MUNNAR",
        "latitude": 10.085371,
        "longitude": 77.059261,
        "type": "GP"
      },
      {
        "place": "SANTHANPARA",
        "latitude": 9.965321,
        "longitude": 77.059261,
        "type": "GP"
      },
      {
        "place": "VATTAVADA",
        "latitude": 10.183901,
        "longitude": 77.259201,
        "type": "GP"
      }
    ]
  },
  {
    "state": "KERALA",
    "state_code": "32",
    "district": "IDUKKI",
    "district_code": "596",
    "block": "ELEMDESAM",
    "block_code": "6289",
    "block_address": "",
    "route": [
      {
        "place": "KARIMANNOOR TE",
        "latitude": 9.918647,
        "longitude": 76.782803,
        "type": "BHQ"
      },
      {
        "place": "ALAKKODE",
        "latitude": 9.882431,
        "longitude": 76.765191,
        "type": "GP"
      },
      {
        "place": "KARIMANNOOR",
        "latitude": 9.920801,
        "longitude": 76.778339,
        "type": "GP"
      },
      {
        "place": "KODIKULAM",
        "latitude": 9.948131,
        "longitude": 76.765051,
        "type": "GP"
      },
      {
        "place": "KUDAYATHOOR",
        "latitude": 9.827101,
        "longitude": 76.789501,
        "type": "GP"
      },
      {
        "place": "UDUMBANOOR",
        "latitude": 9.906101,
        "longitude": 76.813551,
        "type": "GP"
      },
      {
        "place": "VANNAPURAM",
        "latitude": 9.987931,
        "longitude": 76.789751,
        "type": "GP"
      },
      {
        "place": "VELLIYAMATTOM",
        "latitude": 9.847971,
        "longitude": 76.828641,
        "type": "GP"
      }
    ]
  },
  {
    "state": "KERALA",
    "state_code": "32",
    "district": "IDUKKI",
    "district_code": "596",
    "block": "IDUKKI",
    "block_code": "6290",
    "block_address": "",
    "route": [
      {
        "place": "IDUKKI TE",
        "latitude": 9.855758,
        "longitude": 76.937525,
        "type": "BHQ"
      },
      {
        "place": "ARAKULAM",
        "latitude": 9.791211,
        "longitude": 76.852161,
        "type": "GP"
      },
      {
        "place": "IDUKKI - KANJIKUZHY",
        "latitude": 9.952541,
        "longitude": 76.934001,
        "type": "GP"
      },
      {
        "place": "KAMAKSHY",
        "latitude": 9.839761,
        "longitude": 77.034671,
        "type": "GP"
      },
      {
        "place": "MARIYAPURAM",
        "latitude": 9.856509,
        "longitude": 76.987771,
        "type": "GP"
      },
      {
        "place": "VATHIKUDY",
        "latitude": 9.914091,
        "longitude": 77.008251,
        "type": "GP"
      },
      {
        "place": "VAZHATHOPE",
        "latitude": 9.874471,
        "longitude": 76.959161,
        "type": "GP"
      }
    ]
  },
  {
    "state": "KERALA",
    "state_code": "32",
    "district": "IDUKKI",
    "district_code": "596",
    "block": "KATTAPPANA",
    "block_code": "6291",
    "block_address": "",
    "route": [
      {
        "place": "KATTAPANA  TE",
        "latitude": 9.760778,
        "longitude": 77.11525,
        "type": "BHQ"
      },
      {
        "place": "AYYAPPANCOIL",
        "latitude": 9.75431,
        "longitude": 77.11583,
        "type": "GP"
      },
      {
        "place": "CHAKKUPALLAM",
        "latitude": 9.664561,
        "longitude": 77.157471,
        "type": "GP"
      },
      {
        "place": "ERATTAYAR",
        "latitude": 9.794941,
        "longitude": 77.107581,
        "type": "GP"
      },
      {
        "place": "KANCHIYAR",
        "latitude": 9.738531,
        "longitude": 77.062231,
        "type": "GP"
      },
      {
        "place": "Kattappana",
        "latitude": 9.754311,
        "longitude": 77.115829,
        "type": "GP"
      },
      {
        "place": "UPPUTHARA",
        "latitude": 9.699471,
        "longitude": 77.021091,
        "type": "GP"
      },
      {
        "place": "VANDENMEDU",
        "latitude": 9.722889,
        "longitude": 77.123121,
        "type": "GP"
      }
    ]
  },
  {
    "state": "KERALA",
    "state_code": "32",
    "district": "IDUKKI",
    "district_code": "596",
    "block": "NEDUMKANDOM",
    "block_code": "6292",
    "block_address": "",
    "route": [
      {
        "place": "CHEMMANAR TE",
        "latitude": 9.924849,
        "longitude": 77.15724,
        "type": "BHQ"
      },
      {
        "place": "KARUNAPURAM",
        "latitude": 9.780212,
        "longitude": 77.206581,
        "type": "GP"
      },
      {
        "place": "NEDUMKANDAM",
        "latitude": 9.8342225,
        "longitude": 77.159098,
        "type": "GP"
      },
      {
        "place": "PAMPADUMPARA",
        "latitude": 9.799401,
        "longitude": 77.161281,
        "type": "GP"
      },
      {
        "place": "RAJAKKAD",
        "latitude": 9.961191,
        "longitude": 77.096912,
        "type": "GP"
      },
      {
        "place": "RAJAKUMARI",
        "latitude": 9.968641,
        "longitude": 77.152711,
        "type": "GP"
      },
      {
        "place": "SENAPATHY",
        "latitude": 9.950042,
        "longitude": 77.180151,
        "type": "GP"
      },
      {
        "place": "UDUMBANCHOLA",
        "latitude": 9.899801,
        "longitude": 77.177913,
        "type": "GP"
      }
    ]
  },
  {
    "state": "KERALA",
    "state_code": "32",
    "district": "IDUKKI",
    "district_code": "596",
    "block": "THODUPUZHA",
    "block_code": "6293",
    "block_address": "",
    "route": [
      {
        "place": "THODUPUZHA TE",
        "latitude": 9.899369,
        "longitude": 76.715553,
        "type": "BHQ"
      },
      {
        "place": "EDAVETTY",
        "latitude": 9.893389,
        "longitude": 76.745261,
        "type": "GP"
      },
      {
        "place": "KARIMKUNNAM",
        "latitude": 9.852926,
        "longitude": 76.686422,
        "type": "GP"
      },
      {
        "place": "KUMARAMANGALAM",
        "latitude": 9.937501,
        "longitude": 76.708471,
        "type": "GP"
      },
      {
        "place": "MANAKKAD",
        "latitude": 9.910129,
        "longitude": 76.676101,
        "type": "GP"
      },
      {
        "place": "MUTTOM",
        "latitude": 9.839559,
        "longitude": 76.746061,
        "type": "GP"
      },
      {
        "place": "PURAPUZHA",
        "latitude": 9.882971,
        "longitude": 76.642301,
        "type": "GP"
      }
    ]
  },
  {
    "state": "KERALA",
    "state_code": "32",
    "district": "KANNUR",
    "district_code": "589",
    "block": "EDAKKAD",
    "block_code": "6294",
    "block_address": "",
    "route": [
      {
        "place": "CHOVVA EXCHANGE",
        "latitude": 11.873056,
        "longitude": 75.396389,
        "type": "BHQ"
      },
      {
        "place": "CHELORA",
        "latitude": 11.89983,
        "longitude": 75.43089,
        "type": "GP"
      },
      {
        "place": "CHEMBILODE",
        "latitude": 11.87723,
        "longitude": 75.45687,
        "type": "GP"
      },
      {
        "place": "EDAKKAD",
        "latitude": 11.84587,
        "longitude": 75.41694,
        "type": "GP"
      },
      {
        "place": "ELAYAVOOR",
        "latitude": 11.88638,
        "longitude": 75.4037,
        "type": "GP"
      },
      {
        "place": "KADAMBOOR",
        "latitude": 11.8344,
        "longitude": 75.45296,
        "type": "GP"
      },
      {
        "place": "KOLACHERRY",
        "latitude": 11.97233,
        "longitude": 75.40938,
        "type": "GP"
      },
      {
        "place": "MUNDERI",
        "latitude": 11.91226,
        "longitude": 75.45546,
        "type": "GP"
      },
      {
        "place": "PERALASSERI",
        "latitude": 11.83257,
        "longitude": 75.48335,
        "type": "GP"
      }
    ]
  },
  {
    "state": "KERALA",
    "state_code": "32",
    "district": "KANNUR",
    "district_code": "589",
    "block": "IRIKKUR",
    "block_code": "6295",
    "block_address": "",
    "route": [
      {
        "place": "IRITTY EXCH",
        "latitude": 11.991066,
        "longitude": 75.673407,
        "type": "BHQ"
      },
      {
        "place": "ERUVESSEY",
        "latitude": 12.09501,
        "longitude": 75.54652,
        "type": "GP"
      },
      {
        "place": "IRIKKUR",
        "latitude": 11.9849092,
        "longitude": 75.5507565,
        "type": "GP"
      },
      {
        "place": "KUTTIATTOR",
        "latitude": 11.958817,
        "longitude": 75.474183,
        "type": "GP"
      },
      {
        "place": "MALAPATTOM",
        "latitude": 12.01876,
        "longitude": 75.48788,
        "type": "GP"
      },
      {
        "place": "MAYYIL",
        "latitude": 11.99264,
        "longitude": 75.45131,
        "type": "GP"
      },
      {
        "place": "PADIYUR",
        "latitude": 11.99837,
        "longitude": 75.62802,
        "type": "GP"
      },
      {
        "place": "PAYYAVOOR",
        "latitude": 12.06068,
        "longitude": 75.58124,
        "type": "GP"
      },
      {
        "place": "SREEKANDAPURAM",
        "latitude": 12.0445,
        "longitude": 75.50856,
        "type": "GP"
      },
      {
        "place": "ULIKKAL",
        "latitude": 12.03754,
        "longitude": 75.66535,
        "type": "GP"
      }
    ]
  },
  {
    "state": "KERALA",
    "state_code": "32",
    "district": "KANNUR",
    "district_code": "589",
    "block": "IRITTY",
    "block_code": "6296",
    "block_address": "",
    "route": [
      {
        "place": "IRITTY EXCH",
        "latitude": 11.991066,
        "longitude": 75.673407,
        "type": "BHQ"
      },
      {
        "place": "ARALAM",
        "latitude": 11.99676,
        "longitude": 75.72643,
        "type": "GP"
      },
      {
        "place": "AYYANKUNNU",
        "latitude": 12.03236,
        "longitude": 75.74512,
        "type": "GP"
      },
      {
        "place": "KEEZHALLUR",
        "latitude": 11.92834,
        "longitude": 75.52731,
        "type": "GP"
      },
      {
        "place": "KEEZHUR - CHAVASSERI",
        "latitude": 11.96413,
        "longitude": 75.65553,
        "type": "GP"
      },
      {
        "place": "KOODALI",
        "latitude": 11.94123,
        "longitude": 75.505,
        "type": "GP"
      },
      {
        "place": "PAYAM",
        "latitude": 12.00286,
        "longitude": 75.68956,
        "type": "GP"
      },
      {
        "place": "THILLANKERI",
        "latitude": 11.9286,
        "longitude": 75.6601,
        "type": "GP"
      }
    ]
  },
  {
    "state": "KERALA",
    "state_code": "32",
    "district": "KANNUR",
    "district_code": "589",
    "block": "KALLIASSERI",
    "block_code": "6884",
    "block_address": "",
    "route": [
      {
        "place": "PAYANGADI EXCH",
        "latitude": 12.019813,
        "longitude": 75.263475,
        "type": "BHQ"
      },
      {
        "place": "CHERUKUNNU",
        "latitude": 11.99646,
        "longitude": 75.29441,
        "type": "GP"
      },
      {
        "place": "CHERUTHAZHAM",
        "latitude": 12.07123,
        "longitude": 75.25962,
        "type": "GP"
      },
      {
        "place": "EZHOME",
        "latitude": 12.03821,
        "longitude": 75.29293,
        "type": "GP"
      },
      {
        "place": "KALLIASSERY",
        "latitude": 11.97025,
        "longitude": 75.36166,
        "type": "GP"
      },
      {
        "place": "KANNAPURAM",
        "latitude": 11.98594,
        "longitude": 75.31177,
        "type": "GP"
      },
      {
        "place": "MADAYI",
        "latitude": 12.02435,
        "longitude": 75.26678,
        "type": "GP"
      },
      {
        "place": "MATTOOL",
        "latitude": 11.97356,
        "longitude": 75.28573,
        "type": "GP"
      },
      {
        "place": "NARATH",
        "latitude": 11.93997,
        "longitude": 75.39545,
        "type": "GP"
      }
    ]
  },
  {
    "state": "KERALA",
    "state_code": "32",
    "district": "KANNUR",
    "district_code": "589",
    "block": "KANNUR",
    "block_code": "6297",
    "block_address": "",
    "route": [
      {
        "place": "VALAPATTANAM EXCHANGE",
        "latitude": 11.927705,
        "longitude": 75.347245,
        "type": "BHQ"
      },
      {
        "place": "AZHIKODE",
        "latitude": 11.92039,
        "longitude": 75.336015,
        "type": "GP"
      },
      {
        "place": "CHIRAKKAL",
        "latitude": 11.91372,
        "longitude": 75.3584,
        "type": "GP"
      },
      {
        "place": "PALLIKKUNNU",
        "latitude": 11.88921,
        "longitude": 75.36152,
        "type": "GP"
      },
      {
        "place": "PAPPINISSERI",
        "latitude": 11.94822,
        "longitude": 75.354835,
        "type": "GP"
      },
      {
        "place": "PUZHATHI",
        "latitude": 11.89652,
        "longitude": 75.38469,
        "type": "GP"
      },
      {
        "place": "VALAPATTANAM",
        "latitude": 11.92813,
        "longitude": 75.34703,
        "type": "GP"
      }
    ]
  },
  {
    "state": "KERALA",
    "state_code": "32",
    "district": "KANNUR",
    "district_code": "589",
    "block": "KUTHUPARAMBA",
    "block_code": "6298",
    "block_address": "",
    "route": [
      {
        "place": "KUTHUPARAMBA EXCHANGE",
        "latitude": 11.831927,
        "longitude": 75.566598,
        "type": "BHQ"
      },
      {
        "place": "CHITTARIPARAMBA",
        "latitude": 11.8461,
        "longitude": 75.64334,
        "type": "GP"
      },
      {
        "place": "KOTTAYAM",
        "latitude": 11.80856,
        "longitude": 75.54994,
        "type": "GP"
      },
      {
        "place": "KUNNATHUPARAMBA",
        "latitude": 11.75562,
        "longitude": 75.61346,
        "type": "GP"
      },
      {
        "place": "MANGATTIDOM",
        "latitude": 11.86164,
        "longitude": 75.56255,
        "type": "GP"
      },
      {
        "place": "PATTIAM",
        "latitude": 11.79912,
        "longitude": 75.56276,
        "type": "GP"
      },
      {
        "place": "TRIPPANGOTTUR",
        "latitude": 11.74926,
        "longitude": 75.62925,
        "type": "GP"
      }
    ]
  },
  {
    "state": "KERALA",
    "state_code": "32",
    "district": "KANNUR",
    "district_code": "589",
    "block": "PANOOR",
    "block_code": "6883",
    "block_address": "",
    "route": [
      {
        "place": "KUTHUPARAMBA EXCHANGE",
        "latitude": 11.831927,
        "longitude": 75.566598,
        "type": "BHQ"
      },
      {
        "place": "CHOKLI",
        "latitude": 11.72879,
        "longitude": 75.5529,
        "type": "GP"
      },
      {
        "place": "KADIRUR",
        "latitude": 11.78578,
        "longitude": 75.53269,
        "type": "GP"
      },
      {
        "place": "KARIYAD",
        "latitude": 11.69708,
        "longitude": 75.58319,
        "type": "GP"
      },
      {
        "place": "MOKERI",
        "latitude": 11.78406,
        "longitude": 75.57065,
        "type": "GP"
      },
      {
        "place": "PANNIYANNUR",
        "latitude": 11.75201,
        "longitude": 75.55456,
        "type": "GP"
      },
      {
        "place": "PANOOR",
        "latitude": 11.7594,
        "longitude": 75.58018,
        "type": "GP"
      },
      {
        "place": "PERINGALAM",
        "latitude": 11.72826,
        "longitude": 75.59292,
        "type": "GP"
      }
    ]
  },
  {
    "state": "KERALA",
    "state_code": "32",
    "district": "KANNUR",
    "district_code": "589",
    "block": "PAYYANNUR",
    "block_code": "6299",
    "block_address": "",
    "route": [
      {
        "place": "PAYYANNUR EXCH",
        "latitude": 12.113371,
        "longitude": 75.211376,
        "type": "BHQ"
      },
      {
        "place": "CHERUPUZHA",
        "latitude": 12.27452,
        "longitude": 75.36427,
        "type": "GP"
      },
      {
        "place": "ERAMAM -KUTTOOR",
        "latitude": 12.13366,
        "longitude": 75.30025,
        "type": "GP"
      },
      {
        "place": "KANKOLE- ALAPADAMBA",
        "latitude": 12.1786,
        "longitude": 75.24739,
        "type": "GP"
      },
      {
        "place": "KARIVELLUR -PERALAM",
        "latitude": 12.17343,
        "longitude": 75.19363,
        "type": "GP"
      },
      {
        "place": "KUNHIMANGALAM",
        "latitude": 12.07965,
        "longitude": 75.24017,
        "type": "GP"
      },
      {
        "place": "PERINGOME -VAYAKKARA",
        "latitude": 12.22425,
        "longitude": 75.31554,
        "type": "GP"
      },
      {
        "place": "RAMANTHALI",
        "latitude": 12.06035,
        "longitude": 75.18941,
        "type": "GP"
      }
    ]
  },
  {
    "state": "KERALA",
    "state_code": "32",
    "district": "KANNUR",
    "district_code": "589",
    "block": "PERAVOOR",
    "block_code": "6300",
    "block_address": "",
    "route": [
      {
        "place": "PERAVOOR XGE",
        "latitude": 11.89361,
        "longitude": 75.74134,
        "type": "BHQ"
      },
      {
        "place": "KANICHAR",
        "latitude": 11.90641,
        "longitude": 75.78509,
        "type": "GP"
      },
      {
        "place": "KELAKAM",
        "latitude": 11.89447,
        "longitude": 75.80939,
        "type": "GP"
      },
      {
        "place": "KOLAYAD",
        "latitude": 11.85272,
        "longitude": 75.69662,
        "type": "GP"
      },
      {
        "place": "KOTTIYOOR",
        "latitude": 11.8801,
        "longitude": 75.84737,
        "type": "GP"
      },
      {
        "place": "MALUR",
        "latitude": 11.89242,
        "longitude": 75.62699,
        "type": "GP"
      },
      {
        "place": "MUZHAKKUNNU",
        "latitude": 11.93809,
        "longitude": 75.70554,
        "type": "GP"
      },
      {
        "place": "PERAVOOR",
        "latitude": 11.90175,
        "longitude": 75.73399,
        "type": "GP"
      }
    ]
  },
  {
    "state": "KERALA",
    "state_code": "32",
    "district": "KANNUR",
    "district_code": "589",
    "block": "TALIPARAMBA",
    "block_code": "6301",
    "block_address": "",
    "route": [
      {
        "place": "TALIPARAMBA EXCH",
        "latitude": 12.036977,
        "longitude": 75.364472,
        "type": "BHQ"
      },
      {
        "place": "ALAKODE",
        "latitude": 12.19849,
        "longitude": 75.45814,
        "type": "GP"
      },
      {
        "place": "CHAPPARAPADAVU",
        "latitude": 12.12721,
        "longitude": 75.41499,
        "type": "GP"
      },
      {
        "place": "CHENGALAI",
        "latitude": 12.04392,
        "longitude": 75.4908,
        "type": "GP"
      },
      {
        "place": "KADANNAPALLY -PANAPUZHA",
        "latitude": 12.1058191,
        "longitude": 75.2866434,
        "type": "GP"
      },
      {
        "place": "KURUMATHUR",
        "latitude": 12.0402738,
        "longitude": 75.4115991,
        "type": "GP"
      },
      {
        "place": "NADUVIL",
        "latitude": 12.120875,
        "longitude": 75.4820356,
        "type": "GP"
      },
      {
        "place": "PARIYARAM",
        "latitude": 12.06885,
        "longitude": 75.33153,
        "type": "GP"
      },
      {
        "place": "PATTUVAM",
        "latitude": 12.02715,
        "longitude": 75.32655,
        "type": "GP"
      },
      {
        "place": "UDAYAGIRI",
        "latitude": 12.22895,
        "longitude": 75.48139,
        "type": "GP"
      }
    ]
  },
  {
    "state": "KERALA",
    "state_code": "32",
    "district": "KANNUR",
    "district_code": "589",
    "block": "THALASSERY",
    "block_code": "6302",
    "block_address": "",
    "route": [
      {
        "place": "KUTHUPARAMBA EXCHANGE",
        "latitude": 11.831927,
        "longitude": 75.566598,
        "type": "BHQ"
      },
      {
        "place": "ANCHARAKANDY",
        "latitude": 11.88622,
        "longitude": 75.48619,
        "type": "GP"
      },
      {
        "place": "DHARMADAM",
        "latitude": 11.77501,
        "longitude": 75.4697,
        "type": "GP"
      },
      {
        "place": "ERANHOLI",
        "latitude": 11.77476,
        "longitude": 75.51271,
        "type": "GP"
      },
      {
        "place": "MUZHAPPILANGAD",
        "latitude": 11.80943,
        "longitude": 75.4438,
        "type": "GP"
      },
      {
        "place": "NEW MAHI",
        "latitude": 11.71054,
        "longitude": 75.53935,
        "type": "GP"
      },
      {
        "place": "PINARAYI",
        "latitude": 11.80856,
        "longitude": 75.49391,
        "type": "GP"
      },
      {
        "place": "VENGAD",
        "latitude": 11.86451,
        "longitude": 75.50964,
        "type": "GP"
      }
    ]
  },
  {
    "state": "KERALA",
    "state_code": "32",
    "district": "KASARAGOD",
    "district_code": "588",
    "block": "KANHANGAD",
    "block_code": "6303",
    "block_address": "",
    "route": [
      {
        "place": "KANHANGAD EXCHANGE (OLT)",
        "latitude": 12.31607,
        "longitude": 75.08998,
        "type": "BHQ"
      },
      {
        "place": "AJANOOR",
        "latitude": 12.33999,
        "longitude": 75.08928,
        "type": "GP"
      },
      {
        "place": "MADIKKAI",
        "latitude": 12.30004,
        "longitude": 75.1366,
        "type": "GP"
      },
      {
        "place": "PALLIKKARA",
        "latitude": 12.38856,
        "longitude": 75.04311,
        "type": "GP"
      },
      {
        "place": "PULLURPERIYA",
        "latitude": 12.38257,
        "longitude": 75.10085,
        "type": "GP"
      },
      {
        "place": "UDMA",
        "latitude": 12.42752,
        "longitude": 75.02298,
        "type": "GP"
      }
    ]
  },
  {
    "state": "KERALA",
    "state_code": "32",
    "district": "KASARAGOD",
    "district_code": "588",
    "block": "KARADKA",
    "block_code": "6886",
    "block_address": "",
    "route": [
      {
        "place": "MULLERIYA EXCH",
        "latitude": 12.54629,
        "longitude": 75.16778,
        "type": "BHQ"
      },
      {
        "place": "BEDADUKA",
        "latitude": 12.4612,
        "longitude": 75.16628,
        "type": "GP"
      },
      {
        "place": "BELLOOR",
        "latitude": 12.59146,
        "longitude": 75.17449,
        "type": "GP"
      },
      {
        "place": "DELAMPADY",
        "latitude": 12.55414,
        "longitude": 75.24584,
        "type": "GP"
      },
      {
        "place": "KARADKA",
        "latitude": 12.54909,
        "longitude": 75.16524,
        "type": "GP"
      },
      {
        "place": "KUMBADAJE",
        "latitude": 12.5711,
        "longitude": 75.1109,
        "type": "GP"
      },
      {
        "place": "KUTIKKOL",
        "latitude": 12.47746,
        "longitude": 75.21173,
        "type": "GP"
      },
      {
        "place": "MULIYAR",
        "latitude": 12.50903,
        "longitude": 75.09555,
        "type": "GP"
      }
    ]
  },
  {
    "state": "KERALA",
    "state_code": "32",
    "district": "KASARAGOD",
    "district_code": "588",
    "block": "KASARGOD",
    "block_code": "6304",
    "block_address": "",
    "route": [
      {
        "place": "KASARGOD OLT",
        "latitude": 12.50283,
        "longitude": 74.98978,
        "type": "BHQ"
      },
      {
        "place": "BADIYADKA",
        "latitude": 12.58551,
        "longitude": 75.07417,
        "type": "GP"
      },
      {
        "place": "CHEMNAD",
        "latitude": 12.48089,
        "longitude": 75.03083,
        "type": "GP"
      },
      {
        "place": "CHENGALA",
        "latitude": 12.50963,
        "longitude": 75.05257,
        "type": "GP"
      },
      {
        "place": "KUMBALA",
        "latitude": 12.59497,
        "longitude": 74.94402,
        "type": "GP"
      },
      {
        "place": "MADHUR",
        "latitude": 12.54035,
        "longitude": 75.0003,
        "type": "GP"
      },
      {
        "place": "MOGRAL PUTHUR",
        "latitude": 12.5396,
        "longitude": 74.9638,
        "type": "GP"
      }
    ]
  },
  {
    "state": "KERALA",
    "state_code": "32",
    "district": "KASARAGOD",
    "district_code": "588",
    "block": "MANJESHWAR",
    "block_code": "6305",
    "block_address": "",
    "route": [
      {
        "place": "UPPALA EXCHANGE",
        "latitude": 12.67046,
        "longitude": 74.91148,
        "type": "BHQ"
      },
      {
        "place": "ENMAKAJE",
        "latitude": 12.6464,
        "longitude": 75.1079,
        "type": "GP"
      },
      {
        "place": "MANGALPADY",
        "latitude": 12.6579598,
        "longitude": 74.91897,
        "type": "GP"
      },
      {
        "place": "MANJEWSWARAM",
        "latitude": 12.71563,
        "longitude": 74.88926,
        "type": "GP"
      },
      {
        "place": "MEENJA",
        "latitude": 12.71332,
        "longitude": 74.95332,
        "type": "GP"
      },
      {
        "place": "PAIVALIKE",
        "latitude": 12.68688,
        "longitude": 74.98306,
        "type": "GP"
      },
      {
        "place": "PUTHIGE",
        "latitude": 12.62141,
        "longitude": 75.00832,
        "type": "GP"
      },
      {
        "place": "VORKADY",
        "latitude": 12.75389,
        "longitude": 74.9473,
        "type": "GP"
      }
    ]
  },
  {
    "state": "KERALA",
    "state_code": "32",
    "district": "KASARAGOD",
    "district_code": "588",
    "block": "NILESHWAR",
    "block_code": "6306",
    "block_address": "",
    "route": [
      {
        "place": "CHERVATHUR OLT",
        "latitude": 12.21064,
        "longitude": 75.15457,
        "type": "BHQ"
      },
      {
        "place": "CHERUVATHUR",
        "latitude": 12.2159,
        "longitude": 75.1609,
        "type": "GP"
      },
      {
        "place": "KAYYUR CHEEMENI",
        "latitude": 12.2369,
        "longitude": 75.2303,
        "type": "GP"
      },
      {
        "place": "PADNE",
        "latitude": 12.1699,
        "longitude": 75.1503,
        "type": "GP"
      },
      {
        "place": "PILICODE",
        "latitude": 12.1911,
        "longitude": 75.1674,
        "type": "GP"
      },
      {
        "place": "THRIKKARIPUR",
        "latitude": 12.1451,
        "longitude": 75.1775,
        "type": "GP"
      },
      {
        "place": "VALIYAPARAMBA",
        "latitude": 12.1481,
        "longitude": 75.1429,
        "type": "GP"
      }
    ]
  },
  {
    "state": "KERALA",
    "state_code": "32",
    "district": "KASARAGOD",
    "district_code": "588",
    "block": "PARAPPA",
    "block_code": "6885",
    "block_address": "",
    "route": [
      {
        "place": "BALAL EXCHANGE",
        "latitude": 12.3858,
        "longitude": 75.2804,
        "type": "BHQ"
      },
      {
        "place": "BALAL",
        "latitude": 12.3853,
        "longitude": 75.2824,
        "type": "GP"
      },
      {
        "place": "EAST ELERI",
        "latitude": 12.3233,
        "longitude": 75.359,
        "type": "GP"
      },
      {
        "place": "KALLAR",
        "latitude": 12.4292,
        "longitude": 75.2661,
        "type": "GP"
      },
      {
        "place": "KINANOOR KARINDALAM",
        "latitude": 12.2875,
        "longitude": 75.2483,
        "type": "GP"
      },
      {
        "place": "KODOMBELLUR",
        "latitude": 12.3907,
        "longitude": 75.1957,
        "type": "GP"
      },
      {
        "place": "PANATHADY",
        "latitude": 12.4556,
        "longitude": 75.3658,
        "type": "GP"
      },
      {
        "place": "WEST ELERI",
        "latitude": 12.3215,
        "longitude": 75.2877,
        "type": "GP"
      }
    ]
  },
  {
    "state": "KERALA",
    "state_code": "32",
    "district": "KOLLAM",
    "district_code": "600",
    "block": "ANCHAL",
    "block_code": "6307",
    "block_address": "",
    "route": [
      {
        "place": "ANCHAL EXCHG",
        "latitude": 8.927764,
        "longitude": 76.911379,
        "type": "BHQ"
      },
      {
        "place": "ALAYAMON",
        "latitude": 8.892105,
        "longitude": 76.951836,
        "type": "GP"
      },
      {
        "place": "ANCHAL",
        "latitude": 8.928619,
        "longitude": 76.914043,
        "type": "GP"
      },
      {
        "place": "ARIENCAVU",
        "latitude": 8.97082,
        "longitude": 77.09732,
        "type": "GP"
      },
      {
        "place": "EDAMULAKKAL",
        "latitude": 8.920887,
        "longitude": 76.895079,
        "type": "GP"
      },
      {
        "place": "EROOR",
        "latitude": 8.936237,
        "longitude": 76.946048,
        "type": "GP"
      },
      {
        "place": "KARAVALOOR",
        "latitude": 8.986218,
        "longitude": 76.909638,
        "type": "GP"
      },
      {
        "place": "KULATHUPUZHA",
        "latitude": 8.907283,
        "longitude": 77.05433,
        "type": "GP"
      },
      {
        "place": "THENMALA",
        "latitude": 8.966135,
        "longitude": 77.069549,
        "type": "GP"
      }
    ]
  },
  {
    "state": "KERALA",
    "state_code": "32",
    "district": "KOLLAM",
    "district_code": "600",
    "block": "CHADAYAMANGALAM",
    "block_code": "6308",
    "block_address": "",
    "route": [
      {
        "place": "CHADAYAMANGALAM XGE",
        "latitude": 8.87382,
        "longitude": 76.87132,
        "type": "BHQ"
      },
      {
        "place": "CHADAYAMANGALAM",
        "latitude": 8.871354,
        "longitude": 76.869321,
        "type": "GP"
      },
      {
        "place": "CHITHARA",
        "latitude": 8.814387,
        "longitude": 76.974016,
        "type": "GP"
      },
      {
        "place": "ELAMADU",
        "latitude": 8.900429,
        "longitude": 76.832103,
        "type": "GP"
      },
      {
        "place": "ITTIVA",
        "latitude": 8.867389,
        "longitude": 76.907385,
        "type": "GP"
      },
      {
        "place": "KADAKKAL",
        "latitude": 8.826499,
        "longitude": 76.917581,
        "type": "GP"
      },
      {
        "place": "KUMMIL",
        "latitude": 8.786692,
        "longitude": 76.940415,
        "type": "GP"
      },
      {
        "place": "NILAMEL",
        "latitude": 8.823026,
        "longitude": 76.883147,
        "type": "GP"
      },
      {
        "place": "VELINALLUR",
        "latitude": 8.874267,
        "longitude": 76.775926,
        "type": "GP"
      }
    ]
  },
  {
    "state": "KERALA",
    "state_code": "32",
    "district": "KOLLAM",
    "district_code": "600",
    "block": "CHAVARA",
    "block_code": "6309",
    "block_address": "",
    "route": [
      {
        "place": "CHAVARA T.E",
        "latitude": 8.975594,
        "longitude": 76.534469,
        "type": "BHQ"
      },
      {
        "place": "CHAVARA",
        "latitude": 8.97983,
        "longitude": 76.53695,
        "type": "GP"
      },
      {
        "place": "NEENDAKARA",
        "latitude": 8.95578,
        "longitude": 76.53405,
        "type": "GP"
      },
      {
        "place": "PANMANA",
        "latitude": 9.01141,
        "longitude": 76.54172,
        "type": "GP"
      },
      {
        "place": "THEKKUMBHAGAM",
        "latitude": 8.96045,
        "longitude": 76.56363,
        "type": "GP"
      },
      {
        "place": "THEVALAKKARA",
        "latitude": 9.01389,
        "longitude": 76.5744,
        "type": "GP"
      }
    ]
  },
  {
    "state": "KERALA",
    "state_code": "32",
    "district": "KOLLAM",
    "district_code": "600",
    "block": "CHITTUMALA",
    "block_code": "6310",
    "block_address": "",
    "route": [
      {
        "place": "KUNDARA T.E",
        "latitude": 8.963221,
        "longitude": 76.684707,
        "type": "BHQ"
      },
      {
        "place": "KIZHAKKEKALLADA",
        "latitude": 9.01705,
        "longitude": 76.65303,
        "type": "GP"
      },
      {
        "place": "KUNDARA",
        "latitude": 8.96085,
        "longitude": 76.67244,
        "type": "GP"
      },
      {
        "place": "MUNDROTHURUTHU",
        "latitude": 9.002333,
        "longitude": 76.63036,
        "type": "GP"
      },
      {
        "place": "PANAYAM",
        "latitude": 8.93727,
        "longitude": 76.61735,
        "type": "GP"
      },
      {
        "place": "PERAYAM",
        "latitude": 8.98228,
        "longitude": 76.67133,
        "type": "GP"
      },
      {
        "place": "PERINAD",
        "latitude": 8.9485,
        "longitude": 76.63763,
        "type": "GP"
      },
      {
        "place": "THRIKKADAVUR",
        "latitude": 8.92863,
        "longitude": 76.60149,
        "type": "GP"
      },
      {
        "place": "THRIKKARUVA",
        "latitude": 8.95099,
        "longitude": 76.60033,
        "type": "GP"
      }
    ]
  },
  {
    "state": "KERALA",
    "state_code": "32",
    "district": "KOLLAM",
    "district_code": "600",
    "block": "ITHIKKARA",
    "block_code": "6311",
    "block_address": "",
    "route": [
      {
        "place": "CNO TE",
        "latitude": 8.86324,
        "longitude": 76.70938,
        "type": "BHQ"
      },
      {
        "place": "ADICHANALLOOR",
        "latitude": 8.87147,
        "longitude": 76.69942,
        "type": "GP"
      },
      {
        "place": "CHATHANNUR",
        "latitude": 8.863014,
        "longitude": 76.715121,
        "type": "GP"
      },
      {
        "place": "CHIRAKKARA",
        "latitude": 8.82499,
        "longitude": 76.715067,
        "type": "GP"
      },
      {
        "place": "KALLUVATHUKKAL",
        "latitude": 8.832484,
        "longitude": 76.745646,
        "type": "GP"
      },
      {
        "place": "POOTHAKKULAM",
        "latitude": 8.817233,
        "longitude": 76.699062,
        "type": "GP"
      }
    ]
  },
  {
    "state": "KERALA",
    "state_code": "32",
    "district": "KOLLAM",
    "district_code": "600",
    "block": "KOTTARAKKARA",
    "block_code": "6312",
    "block_address": "",
    "route": [
      {
        "place": "KOTTARAKKARA EXCH",
        "latitude": 8.999911,
        "longitude": 76.769156,
        "type": "BHQ"
      },
      {
        "place": "EZHUKONE",
        "latitude": 8.98034,
        "longitude": 76.72018,
        "type": "GP"
      },
      {
        "place": "KAREEPRA",
        "latitude": 8.951692,
        "longitude": 76.720164,
        "type": "GP"
      },
      {
        "place": "KOTTARAKARA",
        "latitude": 9.00544,
        "longitude": 76.77925,
        "type": "GP"
      },
      {
        "place": "NEDUVATHUR",
        "latitude": 8.998603,
        "longitude": 76.747188,
        "type": "GP"
      },
      {
        "place": "POOYAPPALLY",
        "latitude": 8.908344,
        "longitude": 76.762047,
        "type": "GP"
      },
      {
        "place": "VELIYAM",
        "latitude": 8.940959,
        "longitude": 76.772746,
        "type": "GP"
      }
    ]
  },
  {
    "state": "KERALA",
    "state_code": "32",
    "district": "KOLLAM",
    "district_code": "600",
    "block": "MUKHATHALA",
    "block_code": "6313",
    "block_address": "",
    "route": [
      {
        "place": "MUK TE",
        "latitude": 8.89706,
        "longitude": 76.66752,
        "type": "BHQ"
      },
      {
        "place": "ELAMBALLUR",
        "latitude": 8.955857,
        "longitude": 76.671507,
        "type": "GP"
      },
      {
        "place": "KOTTAMKARA",
        "latitude": 8.906314,
        "longitude": 76.63649,
        "type": "GP"
      },
      {
        "place": "MAYYANAD",
        "latitude": 8.840709,
        "longitude": 76.647191,
        "type": "GP"
      },
      {
        "place": "NEDUMPANA",
        "latitude": 8.906907,
        "longitude": 76.690876,
        "type": "GP"
      },
      {
        "place": "THRIKKOVILVATTOM",
        "latitude": 8.898891,
        "longitude": 76.666541,
        "type": "GP"
      }
    ]
  },
  {
    "state": "KERALA",
    "state_code": "32",
    "district": "KOLLAM",
    "district_code": "600",
    "block": "OACHIRA",
    "block_code": "6314",
    "block_address": "",
    "route": [
      {
        "place": "OCR TE",
        "latitude": 9.13204,
        "longitude": 76.51247,
        "type": "BHQ"
      },
      {
        "place": "ALAPPAD",
        "latitude": 9.0698,
        "longitude": 76.49623,
        "type": "GP"
      },
      {
        "place": "CLAPPANA",
        "latitude": 9.11127,
        "longitude": 76.50895,
        "type": "GP"
      },
      {
        "place": "KULASEKHARAPURAM",
        "latitude": 9.09196,
        "longitude": 76.51601,
        "type": "GP"
      },
      {
        "place": "OACHIRA",
        "latitude": 9.13209,
        "longitude": 76.51268,
        "type": "GP"
      },
      {
        "place": "THAZHAVA",
        "latitude": 9.08905,
        "longitude": 76.56113,
        "type": "GP"
      },
      {
        "place": "THODIYOOR",
        "latitude": 9.06729,
        "longitude": 76.55951,
        "type": "GP"
      }
    ]
  },
  {
    "state": "KERALA",
    "state_code": "32",
    "district": "KOLLAM",
    "district_code": "600",
    "block": "PATHANAPURAM",
    "block_code": "6315",
    "block_address": "",
    "route": [
      {
        "place": "PATHANAPURAM EXCH",
        "latitude": 9.09811,
        "longitude": 76.850734,
        "type": "BHQ"
      },
      {
        "place": "PATHANAPURAM",
        "latitude": 9.088211,
        "longitude": 76.855686,
        "type": "GP"
      },
      {
        "place": "PATTAZHI",
        "latitude": 9.077081,
        "longitude": 76.796412,
        "type": "GP"
      },
      {
        "place": "PATTAZHI VADAKKEKARA",
        "latitude": 9.093953,
        "longitude": 76.798482,
        "type": "GP"
      },
      {
        "place": "PIRAVANTHUR",
        "latitude": 9.055616,
        "longitude": 76.916179,
        "type": "GP"
      },
      {
        "place": "THALAVOOR",
        "latitude": 9.040644,
        "longitude": 76.824751,
        "type": "GP"
      },
      {
        "place": "VILAKUDY",
        "latitude": 9.028411,
        "longitude": 76.855614,
        "type": "GP"
      }
    ]
  },
  {
    "state": "KERALA",
    "state_code": "32",
    "district": "KOLLAM",
    "district_code": "600",
    "block": "SASTHAMCOTTAH",
    "block_code": "6316",
    "block_address": "",
    "route": [
      {
        "place": "SST TE",
        "latitude": 9.0438,
        "longitude": 76.62425,
        "type": "BHQ"
      },
      {
        "place": "KUNNATHUR",
        "latitude": 9.060738,
        "longitude": 76.67647,
        "type": "GP"
      },
      {
        "place": "MYNAGAPPALLY",
        "latitude": 9.041762,
        "longitude": 76.589385,
        "type": "GP"
      },
      {
        "place": "PORUVAZHY",
        "latitude": 9.074972,
        "longitude": 76.660699,
        "type": "GP"
      },
      {
        "place": "SASTHANCOTTA",
        "latitude": 9.043558,
        "longitude": 76.626826,
        "type": "GP"
      },
      {
        "place": "SOORANAD NORTH",
        "latitude": 9.102683,
        "longitude": 76.619724,
        "type": "GP"
      },
      {
        "place": "SOORANAD SOUTH",
        "latitude": 9.074693,
        "longitude": 76.604463,
        "type": "GP"
      },
      {
        "place": "WEST KALLADA",
        "latitude": 9.021507,
        "longitude": 76.630018,
        "type": "GP"
      }
    ]
  },
  {
    "state": "KERALA",
    "state_code": "32",
    "district": "KOLLAM",
    "district_code": "600",
    "block": "VETTIKKAVALA",
    "block_code": "6317",
    "block_address": "",
    "route": [
      {
        "place": "KOTTARAKKARA EXCH",
        "latitude": 8.999911,
        "longitude": 76.769156,
        "type": "BHQ"
      },
      {
        "place": "KULAKKADA",
        "latitude": 9.055781,
        "longitude": 76.731561,
        "type": "GP"
      },
      {
        "place": "MELILA",
        "latitude": 9.012943,
        "longitude": 76.825004,
        "type": "GP"
      },
      {
        "place": "MYLAM",
        "latitude": 9.029676,
        "longitude": 76.785721,
        "type": "GP"
      },
      {
        "place": "PAVITHRESWARAM",
        "latitude": 9.054185,
        "longitude": 76.698149,
        "type": "GP"
      },
      {
        "place": "UMMANNUR",
        "latitude": 8.933647,
        "longitude": 76.816426,
        "type": "GP"
      },
      {
        "place": "VETTIKKAVALA",
        "latitude": 8.994026,
        "longitude": 76.830279,
        "type": "GP"
      }
    ]
  },
  {
    "state": "KERALA",
    "state_code": "32",
    "district": "KOTTAYAM",
    "district_code": "597",
    "block": "ERATTUPETTA",
    "block_code": "6318",
    "block_address": "",
    "route": [
      {
        "place": "ERATTUPETTA EXCHANGE",
        "latitude": 9.690314,
        "longitude": 76.775025,
        "type": "BHQ"
      },
      {
        "place": "ERATTUPETTA",
        "latitude": 9.68383,
        "longitude": 76.77275,
        "type": "GP"
      },
      {
        "place": "MELUKAVU",
        "latitude": 9.78545,
        "longitude": 76.7618,
        "type": "GP"
      },
      {
        "place": "MOONILAVU",
        "latitude": 9.747867,
        "longitude": 76.784933,
        "type": "GP"
      },
      {
        "place": "POONJAR",
        "latitude": 9.6734,
        "longitude": 76.795583,
        "type": "GP"
      },
      {
        "place": "POONJAR THEKKEKARA",
        "latitude": 9.6736,
        "longitude": 76.8136,
        "type": "GP"
      },
      {
        "place": "TEEKOY",
        "latitude": 9.6992818,
        "longitude": 76.805436,
        "type": "GP"
      },
      {
        "place": "THALANAD",
        "latitude": 9.723217,
        "longitude": 76.80955,
        "type": "GP"
      },
      {
        "place": "THALAPPALAM",
        "latitude": 9.706933,
        "longitude": 76.761417,
        "type": "GP"
      },
      {
        "place": "THIDANAD",
        "latitude": 9.661183,
        "longitude": 76.7789,
        "type": "GP"
      }
    ]
  },
  {
    "state": "KERALA",
    "state_code": "32",
    "district": "KOTTAYAM",
    "district_code": "597",
    "block": "ETTUMANOOR",
    "block_code": "6319",
    "block_address": "",
    "route": [
      {
        "place": "GANDHINAGAR EXCHANGE",
        "latitude": 9.631481,
        "longitude": 76.520747,
        "type": "BHQ"
      },
      {
        "place": "ARPOOKARA",
        "latitude": 9.642945,
        "longitude": 76.508687,
        "type": "GP"
      },
      {
        "place": "ATHIRAMPUZHA",
        "latitude": 9.669196,
        "longitude": 76.538013,
        "type": "GP"
      },
      {
        "place": "AYMANAM",
        "latitude": 9.61232,
        "longitude": 76.49837,
        "type": "GP"
      },
      {
        "place": "ETTUMANOOR",
        "latitude": 9.66912,
        "longitude": 76.5568,
        "type": "GP"
      },
      {
        "place": "KUMARAKOM",
        "latitude": 9.5922774,
        "longitude": 76.4354796,
        "type": "GP"
      },
      {
        "place": "NEENDOOR",
        "latitude": 9.686808,
        "longitude": 76.5049832,
        "type": "GP"
      },
      {
        "place": "THIRUVARPU",
        "latitude": 9.5811155,
        "longitude": 76.4779108,
        "type": "GP"
      }
    ]
  },
  {
    "state": "KERALA",
    "state_code": "32",
    "district": "KOTTAYAM",
    "district_code": "597",
    "block": "KADUTHURUTHY",
    "block_code": "6320",
    "block_address": "",
    "route": [
      {
        "place": "KADUTHURUTHY EXGE",
        "latitude": 9.7652,
        "longitude": 76.492467,
        "type": "BHQ"
      },
      {
        "place": "KADUTHURUTHY",
        "latitude": 9.76555,
        "longitude": 76.492983,
        "type": "GP"
      },
      {
        "place": "KALLARA",
        "latitude": 9.708417,
        "longitude": 76.476783,
        "type": "GP"
      },
      {
        "place": "MULAKULAM",
        "latitude": 9.8279,
        "longitude": 76.4983,
        "type": "GP"
      },
      {
        "place": "NJEEZHOOR",
        "latitude": 9.7899,
        "longitude": 76.52325,
        "type": "GP"
      },
      {
        "place": "THALAYOLAPARAMBU",
        "latitude": 9.78535,
        "longitude": 76.446717,
        "type": "GP"
      },
      {
        "place": "VELLOOR",
        "latitude": 9.830017,
        "longitude": 76.45195,
        "type": "GP"
      }
    ]
  },
  {
    "state": "KERALA",
    "state_code": "32",
    "district": "KOTTAYAM",
    "district_code": "597",
    "block": "KANJIRAPPALLY",
    "block_code": "6321",
    "block_address": "",
    "route": [
      {
        "place": "KANJIRAPALLY EXGE",
        "latitude": 9.5545,
        "longitude": 76.790183,
        "type": "BHQ"
      },
      {
        "place": "ERUMELI",
        "latitude": 9.481132,
        "longitude": 76.845525,
        "type": "GP"
      },
      {
        "place": "KANJIRAPPALLY",
        "latitude": 9.553488,
        "longitude": 76.789774,
        "type": "GP"
      },
      {
        "place": "KOOTTICKAL",
        "latitude": 9.58465,
        "longitude": 76.886716,
        "type": "GP"
      },
      {
        "place": "KORUTHODE",
        "latitude": 9.4671,
        "longitude": 76.96315,
        "type": "GP"
      },
      {
        "place": "MANIMALA",
        "latitude": 9.48381,
        "longitude": 76.767323,
        "type": "GP"
      },
      {
        "place": "MUNDAKAYAM",
        "latitude": 9.5383,
        "longitude": 76.885917,
        "type": "GP"
      },
      {
        "place": "PARATHODE",
        "latitude": 9.566686,
        "longitude": 76.8145924,
        "type": "GP"
      }
    ]
  },
  {
    "state": "KERALA",
    "state_code": "32",
    "district": "KOTTAYAM",
    "district_code": "597",
    "block": "LALAM",
    "block_code": "6322",
    "block_address": "",
    "route": [
      {
        "place": "KOLLAPALLY EXGE",
        "latitude": 9.764967,
        "longitude": 76.703033,
        "type": "BHQ"
      },
      {
        "place": "BHARANANGANAM",
        "latitude": 9.700867,
        "longitude": 76.7282,
        "type": "GP"
      },
      {
        "place": "KADANAD",
        "latitude": 9.7795,
        "longitude": 76.701633,
        "type": "GP"
      },
      {
        "place": "KAROOR",
        "latitude": 9.737383,
        "longitude": 76.66975,
        "type": "GP"
      },
      {
        "place": "KOZHUVANAL",
        "latitude": 9.656167,
        "longitude": 76.663333,
        "type": "GP"
      },
      {
        "place": "MEENACHIL",
        "latitude": 9.682967,
        "longitude": 76.722317,
        "type": "GP"
      },
      {
        "place": "MUTHOLY",
        "latitude": 9.692767,
        "longitude": 76.663333,
        "type": "GP"
      }
    ]
  },
  {
    "state": "KERALA",
    "state_code": "32",
    "district": "KOTTAYAM",
    "district_code": "597",
    "block": "MADAPPALLY",
    "block_code": "6323",
    "block_address": "",
    "route": [
      {
        "place": "KURISUMOODU EXGE",
        "latitude": 9.45955,
        "longitude": 76.5537,
        "type": "BHQ"
      },
      {
        "place": "MADAPPALLY",
        "latitude": 9.4813164,
        "longitude": 76.5972581,
        "type": "GP"
      },
      {
        "place": "PAIPPAD",
        "latitude": 9.4263111,
        "longitude": 76.561368,
        "type": "GP"
      },
      {
        "place": "THRIKKODITHANAM",
        "latitude": 9.438267,
        "longitude": 76.56459,
        "type": "GP"
      },
      {
        "place": "VAKATHANAM",
        "latitude": 9.5218,
        "longitude": 76.572667,
        "type": "GP"
      },
      {
        "place": "VAZHAPPALLY",
        "latitude": 9.460567,
        "longitude": 76.5521,
        "type": "GP"
      }
    ]
  },
  {
    "state": "KERALA",
    "state_code": "32",
    "district": "KOTTAYAM",
    "district_code": "597",
    "block": "PALLOM",
    "block_code": "6324",
    "block_address": "",
    "route": [
      {
        "place": "KOTTAYAM E",
        "latitude": 9.58709,
        "longitude": 76.520748,
        "type": "BHQ"
      },
      {
        "place": "AYARKKUNNAM",
        "latitude": 9.635267,
        "longitude": 76.605133,
        "type": "GP"
      },
      {
        "place": "KURICHY",
        "latitude": 9.495117,
        "longitude": 76.526867,
        "type": "GP"
      },
      {
        "place": "PANACHIKKAD",
        "latitude": 9.529017,
        "longitude": 76.541283,
        "type": "GP"
      },
      {
        "place": "PUTHUPPALLY",
        "latitude": 9.555133,
        "longitude": 76.57235,
        "type": "GP"
      },
      {
        "place": "VIJAYAPURAM",
        "latitude": 9.591433,
        "longitude": 76.564583,
        "type": "GP"
      }
    ]
  },
  {
    "state": "KERALA",
    "state_code": "32",
    "district": "KOTTAYAM",
    "district_code": "597",
    "block": "PAMPADY",
    "block_code": "6325",
    "block_address": "",
    "route": [
      {
        "place": "PAMPADY EXGE",
        "latitude": 9.56755,
        "longitude": 76.639367,
        "type": "BHQ"
      },
      {
        "place": "AKALAKUNNAM",
        "latitude": 9.63715,
        "longitude": 76.673533,
        "type": "GP"
      },
      {
        "place": "ELIKULAM",
        "latitude": 9.5995,
        "longitude": 76.731933,
        "type": "GP"
      },
      {
        "place": "KIDANGOOR",
        "latitude": 9.684683,
        "longitude": 76.610367,
        "type": "GP"
      },
      {
        "place": "KOOROPPADA",
        "latitude": 9.597067,
        "longitude": 76.647417,
        "type": "GP"
      },
      {
        "place": "MANNARKADU",
        "latitude": 9.588017,
        "longitude": 76.583167,
        "type": "GP"
      },
      {
        "place": "MEENADOM",
        "latitude": 9.549017,
        "longitude": 76.607083,
        "type": "GP"
      },
      {
        "place": "PALLIKKATHODE",
        "latitude": 9.601933,
        "longitude": 76.683483,
        "type": "GP"
      },
      {
        "place": "PAMPADY",
        "latitude": 9.570967,
        "longitude": 76.639317,
        "type": "GP"
      }
    ]
  },
  {
    "state": "KERALA",
    "state_code": "32",
    "district": "KOTTAYAM",
    "district_code": "597",
    "block": "UZHAVOOR",
    "block_code": "6326",
    "block_address": "",
    "route": [
      {
        "place": "KURAVILANGAD EXGE",
        "latitude": 9.75495,
        "longitude": 76.5615,
        "type": "BHQ"
      },
      {
        "place": "KADAPLAMATTOM",
        "latitude": 9.7049,
        "longitude": 76.60883,
        "type": "GP"
      },
      {
        "place": "KANAKKARI",
        "latitude": 9.716017,
        "longitude": 76.558967,
        "type": "GP"
      },
      {
        "place": "KURAVILANGAD",
        "latitude": 9.757517,
        "longitude": 76.560533,
        "type": "GP"
      },
      {
        "place": "MANJOOR",
        "latitude": 9.732883,
        "longitude": 76.50475,
        "type": "GP"
      },
      {
        "place": "MARANGATTUPILLY",
        "latitude": 9.742683,
        "longitude": 76.611917,
        "type": "GP"
      },
      {
        "place": "RAMAPURAM",
        "latitude": 9.80246,
        "longitude": 76.661817,
        "type": "GP"
      },
      {
        "place": "UZHAVOOR",
        "latitude": 9.791833,
        "longitude": 76.610667,
        "type": "GP"
      },
      {
        "place": "VELIYANNOOR",
        "latitude": 9.8318,
        "longitude": 76.608433,
        "type": "GP"
      }
    ]
  },
  {
    "state": "KERALA",
    "state_code": "32",
    "district": "KOTTAYAM",
    "district_code": "597",
    "block": "VAIKOM",
    "block_code": "6327",
    "block_address": "",
    "route": [
      {
        "place": "VAIKOM",
        "latitude": 9.745711,
        "longitude": 76.391525,
        "type": "BHQ"
      },
      {
        "place": "CHEMPU",
        "latitude": 9.815333,
        "longitude": 76.42365,
        "type": "GP"
      },
      {
        "place": "MARAVANTHURUTHU",
        "latitude": 9.793883,
        "longitude": 76.418,
        "type": "GP"
      },
      {
        "place": "THALAYAZHAM",
        "latitude": 9.715383,
        "longitude": 76.417233,
        "type": "GP"
      },
      {
        "place": "TV PURAM",
        "latitude": 9.711883,
        "longitude": 76.392133,
        "type": "GP"
      },
      {
        "place": "UDAYANAPURAM",
        "latitude": 9.765717,
        "longitude": 76.414983,
        "type": "GP"
      },
      {
        "place": "VECHOOR",
        "latitude": 9.678083,
        "longitude": 76.4208,
        "type": "GP"
      }
    ]
  },
  {
    "state": "KERALA",
    "state_code": "32",
    "district": "KOTTAYAM",
    "district_code": "597",
    "block": "VAZHOOR",
    "block_code": "6328",
    "block_address": "",
    "route": [
      {
        "place": "KARUKACHAL EXGE",
        "latitude": 9.5007,
        "longitude": 76.63735,
        "type": "BHQ"
      },
      {
        "place": "CHIRAKKADAVU",
        "latitude": 9.563133,
        "longitude": 76.76205,
        "type": "GP"
      },
      {
        "place": "KANGAZHA",
        "latitude": 9.50935,
        "longitude": 76.692367,
        "type": "GP"
      },
      {
        "place": "KARUKACHAL",
        "latitude": 9.5009,
        "longitude": 76.636533,
        "type": "GP"
      },
      {
        "place": "NEDUMKUNNAM",
        "latitude": 9.509367,
        "longitude": 76.665967,
        "type": "GP"
      },
      {
        "place": "VAZHOOR",
        "latitude": 9.5665,
        "longitude": 76.706717,
        "type": "GP"
      },
      {
        "place": "VELLAVOOR",
        "latitude": 9.492917,
        "longitude": 76.743867,
        "type": "GP"
      }
    ]
  },
  {
    "state": "KERALA",
    "state_code": "32",
    "district": "KOZHIKODE",
    "district_code": "591",
    "block": "BALUSSERI",
    "block_code": "6329",
    "block_address": "",
    "route": [
      {
        "place": "\"PERAMBRA  E\"",
        "latitude": 11.558028,
        "longitude": 75.753944,
        "type": "BHQ"
      },
      {
        "place": "BALUSSERI",
        "latitude": 11.44757,
        "longitude": 75.82987,
        "type": "GP"
      },
      {
        "place": "KOORACHUNDU",
        "latitude": 11.54018,
        "longitude": 75.84299,
        "type": "GP"
      },
      {
        "place": "KOTTUR",
        "latitude": 11.49563,
        "longitude": 75.81622,
        "type": "GP"
      },
      {
        "place": "NADUVANNUR",
        "latitude": 11.48572,
        "longitude": 75.77605,
        "type": "GP"
      },
      {
        "place": "PANANGAD",
        "latitude": 11.45503,
        "longitude": 75.84259,
        "type": "GP"
      },
      {
        "place": "ULIYERI",
        "latitude": 11.45057,
        "longitude": 75.77261,
        "type": "GP"
      },
      {
        "place": "UNNIKULUM",
        "latitude": 11.44291,
        "longitude": 75.88058,
        "type": "GP"
      }
    ]
  },
  {
    "state": "KERALA",
    "state_code": "32",
    "district": "KOZHIKODE",
    "district_code": "591",
    "block": "CHELANNUR",
    "block_code": "6330",
    "block_address": "",
    "route": [
      {
        "place": "E CHELANNUR",
        "latitude": 11.350505,
        "longitude": 75.809417,
        "type": "BHQ"
      },
      {
        "place": "CHELANNUR",
        "latitude": 11.35693,
        "longitude": 75.80449,
        "type": "GP"
      },
      {
        "place": "KAKKODI",
        "latitude": 11.31372,
        "longitude": 75.79839,
        "type": "GP"
      },
      {
        "place": "KAKKUR",
        "latitude": 11.38642,
        "longitude": 75.82375,
        "type": "GP"
      },
      {
        "place": "NANMANDA",
        "latitude": 11.42192,
        "longitude": 75.83141,
        "type": "GP"
      },
      {
        "place": "NARIKUNNI",
        "latitude": 11.3672,
        "longitude": 75.86392,
        "type": "GP"
      },
      {
        "place": "THALAKULATHUR",
        "latitude": 11.3531,
        "longitude": 75.75916,
        "type": "GP"
      }
    ]
  },
  {
    "state": "KERALA",
    "state_code": "32",
    "district": "KOZHIKODE",
    "district_code": "591",
    "block": "KODUVALLY",
    "block_code": "6331",
    "block_address": "",
    "route": [
      {
        "place": "E THAMARASSERY",
        "latitude": 11.422339,
        "longitude": 75.935138,
        "type": "BHQ"
      },
      {
        "place": "KATTIPPARA",
        "latitude": 11.48711,
        "longitude": 75.91338,
        "type": "GP"
      },
      {
        "place": "KIZHAKKOTH",
        "latitude": 11.37229,
        "longitude": 75.88972,
        "type": "GP"
      },
      {
        "place": "KODENCHERI",
        "latitude": 11.43103,
        "longitude": 76.00676,
        "type": "GP"
      },
      {
        "place": "KODUVALLY",
        "latitude": 11.48711,
        "longitude": 75.91338,
        "type": "GP"
      },
      {
        "place": "KOODARANJI",
        "latitude": 11.34817,
        "longitude": 76.03608,
        "type": "GP"
      },
      {
        "place": "MADAVOOR",
        "latitude": 11.34493,
        "longitude": 75.87916,
        "type": "GP"
      },
      {
        "place": "OMASSERY",
        "latitude": 11.36374,
        "longitude": 75.96454,
        "type": "GP"
      },
      {
        "place": "PUTHUPPADY",
        "latitude": 11.48004,
        "longitude": 75.97432,
        "type": "GP"
      },
      {
        "place": "THAMARASSERI",
        "latitude": 11.40961,
        "longitude": 75.93688,
        "type": "GP"
      },
      {
        "place": "THIRUVAMBADI",
        "latitude": 11.36372,
        "longitude": 76.01025,
        "type": "GP"
      }
    ]
  },
  {
    "state": "KERALA",
    "state_code": "32",
    "district": "KOZHIKODE",
    "district_code": "591",
    "block": "KOZHIKODE",
    "block_code": "6332",
    "block_address": "",
    "route": [
      {
        "place": "\"E FEROKE\"",
        "latitude": 11.186867,
        "longitude": 75.831499,
        "type": "BHQ"
      },
      {
        "place": "FEROKE",
        "latitude": 11.17937,
        "longitude": 75.83293,
        "type": "GP"
      },
      {
        "place": "KADALUNDI",
        "latitude": 11.1506078,
        "longitude": 75.8279001,
        "type": "GP"
      },
      {
        "place": "OLAVANNA",
        "latitude": 11.22854,
        "longitude": 75.83302,
        "type": "GP"
      },
      {
        "place": "RAMANATTUKARA",
        "latitude": 11.17865,
        "longitude": 75.86715,
        "type": "GP"
      }
    ]
  },
  {
    "state": "KERALA",
    "state_code": "32",
    "district": "KOZHIKODE",
    "district_code": "591",
    "block": "KUNNAMANGALAM",
    "block_code": "6333",
    "block_address": "",
    "route": [
      {
        "place": "MOKKOM TE",
        "latitude": 11.32149,
        "longitude": 75.99329,
        "type": "BHQ"
      },
      {
        "place": "CHATHAMANGALAM",
        "latitude": 11.31824,
        "longitude": 75.93983,
        "type": "GP"
      },
      {
        "place": "KARASSERI",
        "latitude": 11.31657,
        "longitude": 75.99786,
        "type": "GP"
      },
      {
        "place": "KODIYATHUR",
        "latitude": 11.28442,
        "longitude": 75.98728,
        "type": "GP"
      },
      {
        "place": "KUNNAMANGALAM",
        "latitude": 11.30507,
        "longitude": 75.87836,
        "type": "GP"
      },
      {
        "place": "KURUVATTUR",
        "latitude": 11.31902,
        "longitude": 75.85161,
        "type": "GP"
      },
      {
        "place": "MAVOOR",
        "latitude": 11.26092,
        "longitude": 75.95198,
        "type": "GP"
      },
      {
        "place": "MOKKOM",
        "latitude": 11.32113,
        "longitude": 75.99709,
        "type": "GP"
      },
      {
        "place": "PERUMANNA",
        "latitude": 11.23944,
        "longitude": 75.87864,
        "type": "GP"
      },
      {
        "place": "PERUVAYAL",
        "latitude": 11.2644,
        "longitude": 75.8889,
        "type": "GP"
      }
    ]
  },
  {
    "state": "KERALA",
    "state_code": "32",
    "district": "KOZHIKODE",
    "district_code": "591",
    "block": "KUNNUMMAL",
    "block_code": "6334",
    "block_address": "",
    "route": [
      {
        "place": "\"MOKERI  E\"",
        "latitude": 11.667261,
        "longitude": 75.730319,
        "type": "BHQ"
      },
      {
        "place": "KAVILUMPARA",
        "latitude": 11.67716,
        "longitude": 75.77903,
        "type": "GP"
      },
      {
        "place": "KAYAKKODI",
        "latitude": 11.6675695,
        "longitude": 75.7532523,
        "type": "GP"
      },
      {
        "place": "KUNNUMAL",
        "latitude": 11.6771075,
        "longitude": 75.7002922,
        "type": "GP"
      },
      {
        "place": "KUTTIADI",
        "latitude": 11.655179,
        "longitude": 75.7493626,
        "type": "GP"
      },
      {
        "place": "MARUTHOMKARA",
        "latitude": 11.64232,
        "longitude": 75.80363,
        "type": "GP"
      },
      {
        "place": "NARIPETTA",
        "latitude": 11.7086621,
        "longitude": 75.722239,
        "type": "GP"
      },
      {
        "place": "VELOM",
        "latitude": 11.6216662,
        "longitude": 75.7075438,
        "type": "GP"
      }
    ]
  },
  {
    "state": "KERALA",
    "state_code": "32",
    "district": "KOZHIKODE",
    "district_code": "591",
    "block": "MELDAY",
    "block_code": "6335",
    "block_address": "",
    "route": [
      {
        "place": "KOYILANDI EXCHANGE",
        "latitude": 11.442639,
        "longitude": 75.693528,
        "type": "BHQ"
      },
      {
        "place": "KEEZHARIYUR",
        "latitude": 11.49908,
        "longitude": 75.69304,
        "type": "GP"
      },
      {
        "place": "MEPPAYUR",
        "latitude": 11.530658,
        "longitude": 75.7109787,
        "type": "GP"
      },
      {
        "place": "PAYYOLI",
        "latitude": 11.51543,
        "longitude": 75.62205,
        "type": "GP"
      },
      {
        "place": "THIKKODI",
        "latitude": 11.49524,
        "longitude": 75.62697,
        "type": "GP"
      },
      {
        "place": "THURAYUR",
        "latitude": 11.5268198,
        "longitude": 75.6559175,
        "type": "GP"
      }
    ]
  },
  {
    "state": "KERALA",
    "state_code": "32",
    "district": "KOZHIKODE",
    "district_code": "591",
    "block": "PANTHALAYANI",
    "block_code": "6336",
    "block_address": "",
    "route": [
      {
        "place": "KOYILANDI EXCHANGE",
        "latitude": 11.442639,
        "longitude": 75.693528,
        "type": "BHQ"
      },
      {
        "place": "ARIKULAM",
        "latitude": 11.49247,
        "longitude": 75.7165,
        "type": "GP"
      },
      {
        "place": "ATHOLI",
        "latitude": 11.40222,
        "longitude": 75.76273,
        "type": "GP"
      },
      {
        "place": "CHEMANACHERY",
        "latitude": 11.39476,
        "longitude": 75.72746,
        "type": "GP"
      },
      {
        "place": "CHENGOTTUKAVU",
        "latitude": 11.42257,
        "longitude": 75.7124,
        "type": "GP"
      },
      {
        "place": "MOODADI",
        "latitude": 11.47038,
        "longitude": 75.6524,
        "type": "GP"
      }
    ]
  },
  {
    "state": "KERALA",
    "state_code": "32",
    "district": "KOZHIKODE",
    "district_code": "591",
    "block": "PERAMBRA",
    "block_code": "6337",
    "block_address": "",
    "route": [
      {
        "place": "\"PERAMBRA  E\"",
        "latitude": 11.558028,
        "longitude": 75.753944,
        "type": "BHQ"
      },
      {
        "place": "CHAKITTAPARA",
        "latitude": 11.57611,
        "longitude": 75.8169,
        "type": "GP"
      },
      {
        "place": "CHANGAROTH",
        "latitude": 11.5995,
        "longitude": 75.76506,
        "type": "GP"
      },
      {
        "place": "CHERUVANNUR",
        "latitude": 11.56398,
        "longitude": 75.71082,
        "type": "GP"
      },
      {
        "place": "KAYANNA",
        "latitude": 11.53373,
        "longitude": 75.79954,
        "type": "GP"
      },
      {
        "place": "KOOTHALI",
        "latitude": 11.58731,
        "longitude": 75.76554,
        "type": "GP"
      },
      {
        "place": "NOCHAD",
        "latitude": 11.53681,
        "longitude": 75.77101,
        "type": "GP"
      },
      {
        "place": "PERAMBRA",
        "latitude": 11.55872,
        "longitude": 75.758,
        "type": "GP"
      }
    ]
  },
  {
    "state": "KERALA",
    "state_code": "32",
    "district": "KOZHIKODE",
    "district_code": "591",
    "block": "THODANNUR",
    "block_code": "6338",
    "block_address": "",
    "route": [
      {
        "place": "THIRUVALLUR TE",
        "latitude": 11.592943,
        "longitude": 75.673634,
        "type": "BHQ"
      },
      {
        "place": "AYANCHERI",
        "latitude": 11.64625,
        "longitude": 75.66491,
        "type": "GP"
      },
      {
        "place": "MANIYUR",
        "latitude": 11.55449,
        "longitude": 75.64196,
        "type": "GP"
      },
      {
        "place": "THIRUVALLUR",
        "latitude": 11.58856,
        "longitude": 75.67352,
        "type": "GP"
      },
      {
        "place": "VILLIYAPPALLY",
        "latitude": 11.62441,
        "longitude": 75.62704,
        "type": "GP"
      }
    ]
  },
  {
    "state": "KERALA",
    "state_code": "32",
    "district": "KOZHIKODE",
    "district_code": "591",
    "block": "THUNERI",
    "block_code": "6339",
    "block_address": "",
    "route": [
      {
        "place": "E NADAPURAM",
        "latitude": 11.685033,
        "longitude": 75.655416,
        "type": "BHQ"
      },
      {
        "place": "CHEKKIAD",
        "latitude": 11.72914,
        "longitude": 75.6385,
        "type": "GP"
      },
      {
        "place": "EDACHERI",
        "latitude": 11.66134,
        "longitude": 75.61517,
        "type": "GP"
      },
      {
        "place": "NADAPURAM",
        "latitude": 11.68926,
        "longitude": 75.664876,
        "type": "GP"
      },
      {
        "place": "PURAMERI",
        "latitude": 11.6713879,
        "longitude": 75.63489,
        "type": "GP"
      },
      {
        "place": "THUNERI",
        "latitude": 11.7086192,
        "longitude": 75.6343477,
        "type": "GP"
      },
      {
        "place": "VALAYAM",
        "latitude": 11.72932,
        "longitude": 75.67439,
        "type": "GP"
      },
      {
        "place": "VANIMEL",
        "latitude": 11.7186,
        "longitude": 75.69884,
        "type": "GP"
      }
    ]
  },